Physical Address Suburb,Physical Address State,Physical Address Post Code,2015 Aged Care Planning Region (ACPR),SA4 Region,Care Type,Residential Places,Home Care Places,Restorative Care Places,Provider Name,Organisation Type,ABS Remoteness,Latitude,Longitude,2016-17 Australian Government Funding
BRAIDWOOD,NSW,2622,Southern Highlands,Capital Region,Multi-Purpose Service,27,2,,Southern NSW Local Health District,State Government,Inner Regional Australia,-35.44276381,149.8054073,947222
WEST ALBURY,NSW,2640,Riverina/Murray,Murray,Residential,122,,,Lutheran Aged Care Albury,Charitable,Inner Regional Australia,-36.07540064,146.8908956,8258323
BREWARRINA,NSW,2839,Orana Far West,Far West and Orana,Multi-Purpose Service,12,4,,Western NSW Local Health District,State Government,Very Remote Australia,-29.961591,146.864313,885351
ALSTONVILLE,NSW,2477,Far North Coast,Richmond - Tweed,Residential,90,,,BaptistCare NSW & ACT,Charitable,Inner Regional Australia,-28.8407184,153.435638,5763466
URANA,NSW,2645,Riverina/Murray,Murray,Multi-Purpose Service,19,,,Murrumbidgee Local Health District,State Government,Outer Regional Australia,-35.325391,146.267697,779588
ANNANDALE,NSW,2038,Inner West,Sydney - Inner West,Residential,83,,,St Basil's Homes,Charitable,Major Cities of Australia,-33.87589048,151.1727327,5146461
BARADINE,NSW,2396,Orana Far West,Far West and Orana,Multi-Purpose Service,14,3,,Western NSW Local Health District,State Government,Remote Australia,-30.945519,149.067008,748189
ARMIDALE,NSW,2350,New England,New England and North West,Residential,64,,,Autumn Lodge,Community Based,Inner Regional Australia,-30.503834,151.65837,4146199
ARNCLIFFE,NSW,2205,South East Sydney,Sydney - Inner South West,Residential,130,,,The Salvation Army (NSW) Property Trust,Charitable,Major Cities of Australia,-33.93965582,151.1348558,8788135
ASHFIELD,NSW,2131,Inner West,Sydney - Inner West,Residential,60,,,Ashfield Baptist Homes Ltd,Religious,Major Cities of Australia,-33.89495522,151.1258414,3258005
URBENVILLE,NSW,2475,New England,New England and North West,Multi-Purpose Service,19,6,,Northern NSW Local Health District,State Government,Outer Regional Australia,-28.47155531,152.5432704,1156276
ASHFIELD,NSW,2131,Inner West,Sydney - Inner West,Residential,135,,,DPG Services Pty Ltd,Private Incorporated Body,Major Cities of Australia,-33.89595,151.127894,5584660
DORRIGO,NSW,2453,Mid North Coast,Coffs Harbour - Grafton,Multi-Purpose Service,21,6,,Mid North Coast Local Health District,State Government,Outer Regional Australia,-30.340795,152.713811,1037996
BALLINA,NSW,2478,Far North Coast,Richmond - Tweed,Residential,71,,,The Trustees of the Roman Catholic Church for the Diocese of Lismore,Religious,Inner Regional Australia,-28.85368951,153.5693841,3877632
WARREN,NSW,2824,Orana Far West,Far West and Orana,Multi-Purpose Service,32,4,,Western NSW Local Health District,State Government,Outer Regional Australia,-31.693977,147.836194,1463864
TUMBARUMBA,NSW,2653,Riverina/Murray,Riverina,Multi-Purpose Service,35,10,,Murrumbidgee Local Health District,State Government,Outer Regional Australia,-35.77979811,148.0055303,1446630
BARHAM,NSW,2732,Riverina/Murray,Murray,Residential,35,,,Murray Haven Homes Inc,Community Based,Outer Regional Australia,-35.62314526,144.1331867,1458739
DELEGATE,NSW,2633,Southern Highlands,Capital Region,Multi-Purpose Service,10,4,,Southern NSW Local Health District,State Government,Outer Regional Australia,-37.044992,148.945673,667373
BARRABA,NSW,2347,New England,New England and North West,Residential,21,,,Barraba and District Retirement Homes Association Incorporated,Community Based,Outer Regional Australia,-30.38285943,150.6051632,1060287
CULCAIRN,NSW,2660,Riverina/Murray,Murray,Multi-Purpose Service,22,2,,Murrumbidgee Local Health District,State Government,Inner Regional Australia,-35.667327,147.042488,1139558
BASS HILL,NSW,2197,South West Sydney,Sydney - Inner South West,Residential,104,,,The Salvation Army (NSW) Property Trust,Charitable,Major Cities of Australia,-33.89957214,151.0034707,7057385
OBERON,NSW,2787,Central West,Central West,Multi-Purpose Service,14,8,,Western NSW Local Health District,State Government,Inner Regional Australia,-33.70539358,149.8530251,905178
BATEAU BAY,NSW,2261,Central Coast,Central Coast,Residential,95,,,The Uniting Church in Australia Property Trust (NSW),Religious,Major Cities of Australia,-33.37428044,151.4793683,4480772
TRANGIE,NSW,2823,Orana Far West,Far West and Orana,Multi-Purpose Service,21,2,,Western NSW Local Health District,State Government,Outer Regional Australia,-32.02902357,147.9742714,995322
BATEAU BAY,NSW,2261,Central Coast,Central Coast,Residential,80,,,Southern Cross Care (NSW & ACT),Religious,Major Cities of Australia,-33.37655678,151.4805947,4793960
TRUNDLE,NSW,2875,Central West,Central West,Multi-Purpose Service,9,,,Western NSW Local Health District,State Government,Outer Regional Australia,-32.92132544,147.704235,423929
BATEAU BAY,NSW,2261,Central Coast,Central Coast,Residential,101,,,Bupa Aged Care Australia Pty Ltd,Private Incorporated Body,Major Cities of Australia,-33.37900507,151.4785501,5989695
BELLINGEN,NSW,2454,Mid North Coast,Coffs Harbour - Grafton,Residential,24,,,Royal Freemasons' Benevolent Institution,Charitable,Outer Regional Australia,-30.45592416,152.8964324,1477244
BELMONT NORTH,NSW,2280,Hunter,Newcastle and Lake Macquarie,Residential,40,,,The Uniting Church in Australia Property Trust (NSW),Religious,Major Cities of Australia,-33.02256615,151.6582985,1917694
BELROSE,NSW,2085,Northern Sydney,Sydney - Northern Beaches,Residential,145,,,The Uniting Church in Australia Property Trust (NSW),Religious,Major Cities of Australia,-33.7232747,151.2192574,7316559
DEAN PARK,NSW,2761,Western Sydney,Sydney - Blacktown,Residential,114,,,St Elizabeth Home Limited,Religious,Major Cities of Australia,-33.73890812,150.8617045,7403283
BOMBALA,NSW,2632,Southern Highlands,Capital Region,Residential,33,,,Southern Cross Care (NSW & ACT),Religious,Outer Regional Australia,-36.91877318,149.2397608,1659934
BONALBO,NSW,2469,Far North Coast,Richmond - Tweed,Residential,15,,,The Uniting Church in Australia Property Trust (NSW),Religious,Outer Regional Australia,-28.73615049,152.6217854,930464
BROKEN HILL,NSW,2880,Orana Far West,Far West and Orana,Residential,40,,,Southern Cross Care (Broken Hill) Ltd,Religious,Outer Regional Australia,-31.9743008,141.4626468,2269308
BROKEN HILL,NSW,2880,Orana Far West,Far West and Orana,Residential,58,,,Southern Cross Care (Broken Hill) Ltd,Religious,Outer Regional Australia,-31.943575,141.485104,3471292
BYRON BAY,NSW,2481,Far North Coast,Richmond - Tweed,Residential,41,,,Byron Aged Care Limited,Charitable,Inner Regional Australia,-28.64178738,153.6107986,2694290
GRASMERE,NSW,2570,South West Sydney,Sydney - Outer South West,Residential,140,,,Carrington Centennial Care Limited,Private Incorporated Body,Major Cities of Australia,-34.05665981,150.6746141,3578028
DALMENY,NSW,2546,Southern Highlands,Capital Region,Residential,36,,,Illawarra Retirement Trust,Community Based,Outer Regional Australia,-36.16733209,150.1085019,1058139
CANOWINDRA,NSW,2804,Central West,Central West,Residential,34,,,The Salvation Army (NSW) Property Trust,Charitable,Outer Regional Australia,-33.56393702,148.6450084,1704945
MIRANDA,NSW,2228,South East Sydney,Sydney - Sutherland,Residential,76,,,IBIS (No 2) Pty Ltd,Private Incorporated Body,Major Cities of Australia,-34.03918489,151.1141905,5121851
KOGARAH,NSW,2217,South East Sydney,Sydney - Inner South West,Residential,27,,,United Protestant Association of NSW Limited,Charitable,Major Cities of Australia,-33.9702292,151.1292062,1399231
CASINO,NSW,2470,Far North Coast,Richmond - Tweed,Residential,73,,,Southern Cross Care (NSW & ACT),Religious,Inner Regional Australia,-28.87215194,153.0433524,4822316
CASTLE HILL,NSW,2154,Northern Sydney,Sydney - Baulkham Hills and Hawkesbury,Residential,139,,,Anglican Community Services,Religious,Major Cities of Australia,-33.73141836,151.0225907,8658677
CASTLE HILL,NSW,2154,Northern Sydney,Sydney - Baulkham Hills and Hawkesbury,Residential,128,,,Anglican Community Services,Religious,Major Cities of Australia,-33.72850572,151.0234254,6941058
CASTLE HILL,NSW,2154,Northern Sydney,Sydney - Baulkham Hills and Hawkesbury,Residential,238,,,Anglican Community Services,Religious,Major Cities of Australia,-33.72850572,151.0234254,12599699
CONDOBOLIN,NSW,2877,Central West,Central West,Residential,40,,,RSL LifeCare Limited,Community Based,Outer Regional Australia,-33.08173415,147.1522513,1130672
COONABARABRAN,NSW,2357,Orana Far West,Far West and Orana,Residential,37,,,Cooinda Coonabarabran Ltd,Community Based,Outer Regional Australia,-31.27408598,149.286025,1603613
COOTAMUNDRA,NSW,2590,Riverina/Murray,Riverina,Residential,55,,,Southern Cross Care (NSW & ACT),Religious,Inner Regional Australia,-34.6335112,148.0183038,3128223
CORAKI,NSW,2471,Far North Coast,Richmond - Tweed,Residential,49,,,BaptistCare NSW & ACT,Charitable,Inner Regional Australia,-28.994059,153.277965,2979381
COROWA,NSW,2646,Riverina/Murray,Murray,Residential,84,,,Southern Cross Care (NSW & ACT),Religious,Inner Regional Australia,-35.9886123,146.3841826,3940271
CORRIMAL,NSW,2518,Illawarra,Illawarra,Residential,96,,,Illawarra Diggers Aged and Community Care Limited,Community Based,Major Cities of Australia,-34.36680286,150.8939735,5994905
CUNDLETOWN,NSW,2430,Mid North Coast,Mid North Coast,Residential,40,,,Calvary Retirement Communities Hunter-Manning Ltd,Religious,Inner Regional Australia,-31.90175824,152.5187223,2900608
DENILIQUIN,NSW,2710,Riverina/Murray,Murray,Residential,50,,,Southern Cross Care (NSW & ACT),Religious,Inner Regional Australia,-35.52969114,144.9607788,2673355
DENMAN,NSW,2328,Hunter,Hunter Valley exc Newcastle,Residential,17,,,Merton Living Limited,Community Based,Inner Regional Australia,-32.38966725,150.6845241,1197629
HABERFIELD,NSW,2045,Inner West,Sydney - Inner West,Residential,43,,,The Presbyterian Church (New South Wales) Property Trust,Religious,Major Cities of Australia,-33.88295276,151.1342483,917223
DUBBO,NSW,2830,Orana Far West,Far West and Orana,Residential,49,,,Catholic Healthcare Limited,Charitable,Inner Regional Australia,-32.23852825,148.608666,3017066
DULWICH HILL,NSW,2203,Inner West,Sydney - Inner West,Residential,38,,,The Salvation Army (NSW) Property Trust,Charitable,Major Cities of Australia,-33.90848368,151.1437203,2211086
DUNDAS,NSW,2115,Western Sydney,Sydney - Parramatta,Residential,66,,,Wesley Community Services Limited,Charitable,Major Cities of Australia,-33.79848423,151.0606228,4527098
MACQUARIE PARK,NSW,2113,Northern Sydney,Sydney - Ryde,Residential,68,,,BaptistCare NSW & ACT,Charitable,Major Cities of Australia,-33.77950801,151.1041697,4210340
FORBES,NSW,2871,Central West,Central West,Residential,91,,,Catholic Healthcare Limited,Charitable,Outer Regional Australia,-33.35872232,147.9904663,6018577
FORESTVILLE,NSW,2087,Northern Sydney,Sydney - Northern Beaches,Residential,35,,,The Churches of Christ Property Trust,Religious,Major Cities of Australia,-33.76389603,151.2189432,1817210
HARDEN,NSW,2587,Southern Highlands,Capital Region,Residential,45,,,Southern Cross Care (NSW & ACT),Religious,Inner Regional Australia,-34.55725448,148.3674601,2275115
GERRINGONG,NSW,2534,Illawarra,Illawarra,Residential,58,,,The Uniting Church in Australia Property Trust (NSW),Religious,Inner Regional Australia,-34.74737134,150.8225316,2985350
GOONELLABAH,NSW,2480,Far North Coast,Richmond - Tweed,Residential,80,,,The Uniting Church in Australia Property Trust (NSW),Religious,Inner Regional Australia,-28.82564046,153.3203039,5858514
HUNTERS HILL,NSW,2110,Northern Sydney,Sydney - Ryde,Residential,35,,,Twilight House,Community Based,Major Cities of Australia,-33.83368739,151.1523822,1551150
GOULBURN,NSW,2580,Southern Highlands,Capital Region,Residential,103,,,The Salvation Army (NSW) Property Trust,Charitable,Inner Regional Australia,-34.76210651,149.6982514,6496907
GRAFTON,NSW,2460,Far North Coast,Coffs Harbour - Grafton,Residential,48,,,Catholic Healthcare Limited,Charitable,Inner Regional Australia,-29.67275546,152.9371529,2470872
GRAFTON,NSW,2460,Far North Coast,Coffs Harbour - Grafton,Residential,63,,,Southern Cross Care (NSW & ACT),Religious,Inner Regional Australia,-29.67088759,152.941198,3854305
GRIFFITH,NSW,2680,Riverina/Murray,Riverina,Residential,95,,,The Pioneers Lodge Limited,Private Incorporated Body,Outer Regional Australia,-34.29702039,146.0405675,4705179
HAMMONDVILLE,NSW,2170,South West Sydney,Sydney - South West,Residential,124,,,HammondCare,Charitable,Major Cities of Australia,-33.95054403,150.9595111,8479544
HORNSBY,NSW,2077,Northern Sydney,Sydney - North Sydney and Hornsby,Residential,59,,,The Frank Whiddon Masonic Homes of New South Wales,Charitable,Major Cities of Australia,-33.7010696,151.1133028,3214801
HUNTERS HILL,NSW,2110,Northern Sydney,Sydney - Ryde,Residential,52,,,Catholic Healthcare Limited,Charitable,Major Cities of Australia,-33.83397475,151.1420162,2901793
SOUTH HURSTVILLE,NSW,2221,South East Sydney,Sydney - Inner South West,Residential,44,,,Catholic Healthcare Limited,Charitable,Major Cities of Australia,-33.97533351,151.1110823,1872326
INVERELL,NSW,2360,New England,New England and North West,Residential,160,,,McLean Care Ltd,Charitable,Outer Regional Australia,-29.76043511,151.1354318,10388522
WEST KEMPSEY,NSW,2440,Mid North Coast,Mid North Coast,Residential,99,,,The Trustees of the Roman Catholic Church for the Diocese of Lismore,Religious,Inner Regional Australia,-31.06106274,152.8256826,4281544
KIAMA,NSW,2533,Illawarra,Illawarra,Residential,82,,,The Council of the Municipality of Kiama,Local Government,Inner Regional Australia,-34.66691955,150.8467345,3286495
KILLARA,NSW,2071,Northern Sydney,Sydney - North Sydney and Hornsby,Residential,19,,,DPG Services Pty Ltd,Private Incorporated Body,Major Cities of Australia,-33.76698273,151.1746037,880368
KOGARAH,NSW,2217,South East Sydney,Sydney - Inner South West,Residential,29,,,Catholic Healthcare Limited,Charitable,Major Cities of Australia,-33.96392074,151.1345997,2009528
KYOGLE,NSW,2474,Far North Coast,Richmond - Tweed,Residential,40,,,The Frank Whiddon Masonic Homes of New South Wales,Charitable,Inner Regional Australia,-28.62575475,153.001548,2733885
LAKEMBA,NSW,2195,Inner West,Sydney - Inner South West,Residential,192,,,St Basil's Homes,Charitable,Major Cities of Australia,-33.92661622,151.0808402,12110078
LANE COVE,NSW,2066,Northern Sydney,Sydney - North Sydney and Hornsby,Residential,74,,,The Uniting Church in Australia Property Trust (NSW),Religious,Major Cities of Australia,-33.8170108,151.1697732,3598914
HABERFIELD,NSW,2045,Inner West,Sydney - Inner West,Residential,86,,,The Uniting Church in Australia Property Trust (NSW),Religious,Major Cities of Australia,-33.88647264,151.141152,5126170
LEICHHARDT,NSW,2040,Inner West,Sydney - Inner West,Residential,130,,,The Uniting Church in Australia Property Trust (NSW),Religious,Major Cities of Australia,-33.88361937,151.1461364,7339155
MACKSVILLE,NSW,2447,Mid North Coast,Mid North Coast,Residential,61,,,Nambucca Valley Care Ltd,Community Based,Outer Regional Australia,-30.712655,152.9203,3039511
MACLEAN,NSW,2463,Far North Coast,Coffs Harbour - Grafton,Residential,61,,,The Frank Whiddon Masonic Homes of New South Wales,Charitable,Inner Regional Australia,-29.45435382,153.2034302,4059428
MAITLAND,NSW,2320,Hunter,Hunter Valley exc Newcastle,Residential,79,,,The Maitland Benevolent Society Ltd,Charitable,Major Cities of Australia,-32.73008509,151.5454898,3956051
MANLY,NSW,2095,Northern Sydney,Sydney - Northern Beaches,Residential,61,,,The Uniting Church in Australia Property Trust (NSW),Religious,Major Cities of Australia,-33.79413224,151.2804027,2579935
MARAYONG,NSW,2148,Western Sydney,Sydney - Blacktown,Residential,146,,,Holy Family Services,Charitable,Major Cities of Australia,-33.74258834,150.8864461,10499751
MATRAVILLE,NSW,2036,South East Sydney,Sydney - Eastern Suburbs,Residential,40,,,Catholic Healthcare Limited,Charitable,Major Cities of Australia,-33.96297422,151.2443664,2442247
MAYFIELD,NSW,2304,Hunter,Newcastle and Lake Macquarie,Residential,38,,,The Uniting Church in Australia Property Trust (NSW),Religious,Major Cities of Australia,-32.89599146,151.7404975,2047524
MERIMBULA,NSW,2548,Southern Highlands,Capital Region,Residential,52,,,RSL LifeCare Limited,Community Based,Outer Regional Australia,-36.8920774,149.9084763,2512472
MERRYLANDS,NSW,2160,Western Sydney,Sydney - Parramatta,Residential,135,,,Southern Cross Care (NSW & ACT),Religious,Major Cities of Australia,-33.83939942,150.973714,7926507
MIRANDA,NSW,2228,South East Sydney,Sydney - Sutherland,Residential,73,,,Juliana Village Association Ltd,Community Based,Major Cities of Australia,-34.03672974,151.1080264,3248719
MONA VALE,NSW,2103,Northern Sydney,Sydney - Northern Beaches,Residential,28,,,Catholic Healthcare Limited,Charitable,Major Cities of Australia,-33.67998269,151.2969139,1703884
MOREE,NSW,2400,New England,New England and North West,Residential,39,,,Fairview Care Limited,Community Based,Outer Regional Australia,-29.469656,149.839234,1932682
MUSWELLBROOK,NSW,2333,Hunter,Hunter Valley exc Newcastle,Residential,65,,,Calvary Retirement Communities Hunter-Manning Ltd,Religious,Inner Regional Australia,-32.2809181,150.8919997,2709348
NARRABEEN,NSW,2101,Northern Sydney,Sydney - Northern Beaches,Residential,74,,,Wesley Community Services Limited,Charitable,Major Cities of Australia,-33.70935503,151.3012024,4029199
NOWRA,NSW,2541,Illawarra,Southern Highlands and Shoalhaven,Residential,107,,,The Uniting Church in Australia Property Trust (NSW),Religious,Inner Regional Australia,-34.8750613,150.5992709,5500077
ORANGE,NSW,2800,Central West,Central West,Residential,62,,,United Protestant Association of NSW Limited,Charitable,Inner Regional Australia,-33.28034225,149.1132343,3436753
ORANGE,NSW,2800,Central West,Central West,Residential,160,,,The Uniting Church in Australia Property Trust (NSW),Religious,Inner Regional Australia,-33.28082307,149.0902776,7444421
PARKES,NSW,2870,Central West,Central West,Residential,41,,,The Salvation Army (NSW) Property Trust,Charitable,Outer Regional Australia,-33.13824782,148.1844314,2134946
PENDLE HILL,NSW,2145,Western Sydney,Sydney - Parramatta,Residential,80,,,United Protestant Association of NSW Limited,Charitable,Major Cities of Australia,-33.79989746,150.9596218,5455940
CHERRYBROOK,NSW,2126,Northern Sydney,Sydney - Baulkham Hills and Hawkesbury,Residential,120,,,Christian Brethren Community Services,Charitable,Major Cities of Australia,-33.73098023,151.0559609,6139643
PETERSHAM,NSW,2049,Inner West,Sydney - City and Inner South,Residential,48,,,The Uniting Church in Australia Property Trust (NSW),Religious,Major Cities of Australia,-33.89645088,151.1548518,2946998
POINT CLARE,NSW,2250,Central Coast,Central Coast,Residential,11,,,Hamersley Nursing Home (WA) Pty Ltd,Private Incorporated Body,Major Cities of Australia,-33.4393194,151.3151349,603666
QUEANBEYAN,NSW,2620,Southern Highlands,Capital Region,Residential,85,,,BaptistCare NSW & ACT,Charitable,Major Cities of Australia,-35.34599447,149.2330649,5197169
REVESBY,NSW,2212,South West Sydney,Sydney - Inner South West,Residential,50,,,Catholic Healthcare Limited,Charitable,Major Cities of Australia,-33.96399322,151.0202047,2223139
REVESBY,NSW,2212,South West Sydney,Sydney - Inner South West,Residential,95,,,Bankstown City Aged Care Ltd,Community Based,Major Cities of Australia,-33.95876843,151.0197437,4578206
ROCKDALE,NSW,2216,South East Sydney,Sydney - Inner South West,Residential,52,,,The Uniting Church in Australia Property Trust (NSW),Religious,Major Cities of Australia,-33.95145788,151.1326399,2631022
ROOTY HILL,NSW,2766,Western Sydney,Sydney - Blacktown,Residential,172,,,Our Lady of Consolation Aged Care & Services Limited,Religious,Major Cities of Australia,-33.78276902,150.846673,7882318
ROSEVILLE,NSW,2069,Northern Sydney,Sydney - North Sydney and Hornsby,Residential,61,,,KOPWA Limited,Community Based,Major Cities of Australia,-33.78071759,151.1766942,3294520
RYDE,NSW,2112,Northern Sydney,Sydney - Ryde,Residential,47,,,The Uniting Church in Australia Property Trust (NSW),Religious,Major Cities of Australia,-33.81927343,151.1040452,2755090
SINGLETON HEIGHTS,NSW,2330,Hunter,Hunter Valley exc Newcastle,Residential,49,,,The Uniting Church in Australia Property Trust (NSW),Religious,Inner Regional Australia,-32.54797262,151.1675456,2828458
SINGLETON,NSW,2330,Hunter,Hunter Valley exc Newcastle,Residential,34,,,Calvary Retirement Communities Hunter-Manning Ltd,Religious,Inner Regional Australia,-32.57020846,151.1691229,2142824
SPRINGWOOD,NSW,2777,Nepean,Sydney - Outer West and Blue Mountains,Residential,136,,,The Uniting Church in Australia Property Trust (NSW),Religious,Major Cities of Australia,-33.69642844,150.5538576,8650940
STANWELL PARK,NSW,2508,Illawarra,Illawarra,Residential,44,,,United Protestant Association of NSW Limited,Charitable,Major Cities of Australia,-34.226181,150.982722,1735552
KIRRAWEE,NSW,2232,South East Sydney,Sydney - Sutherland,Residential,133,,,Thomas Holt,Community Based,Major Cities of Australia,-34.02141758,151.0678777,7548629
NORTH SYDNEY,NSW,2060,Northern Sydney,Sydney - North Sydney and Hornsby,Residential,68,,,North Sydney Retirement Trust,Community Based,Major Cities of Australia,-33.84037215,151.2146296,3171136
DARLINGHURST,NSW,2010,South East Sydney,Sydney - City and Inner South,Residential,30,,,Catholic Healthcare Limited,Charitable,Major Cities of Australia,-33.87557328,151.214163,1949663
SYLVANIA,NSW,2224,South East Sydney,Sydney - Sutherland,Residential,69,,,Wesley Community Services Limited,Charitable,Major Cities of Australia,-34.0197251,151.1054378,3928093
OXLEY VALE,NSW,2340,New England,New England and North West,Residential,90,,,Nazareth Care,Religious,Inner Regional Australia,-31.06339605,150.9035397,5272656
TAMWORTH,NSW,2340,New England,New England and North West,Residential,62,,,Royal Freemasons' Benevolent Institution,Charitable,Inner Regional Australia,-31.098067,150.941568,3576547
TARALGA,NSW,2580,Southern Highlands,Capital Region,Residential,23,,,Crookwell/Taralga Aged Care Ltd,Community Based,Inner Regional Australia,-34.40582572,149.8211439,1013133
TAREE,NSW,2430,Mid North Coast,Mid North Coast,Residential,83,,,Bushland Health Group Limited,Community Based,Inner Regional Australia,-31.89595428,152.4841091,4685739
TEMORA,NSW,2666,Riverina/Murray,Riverina,Residential,36,,,The Frank Whiddon Masonic Homes of New South Wales,Charitable,Outer Regional Australia,-34.44336781,147.5423596,2063233
THIRLMERE,NSW,2572,South West Sydney,Sydney - Outer South West,Residential,45,,,RSL LifeCare Limited,Community Based,Inner Regional Australia,-34.2020681,150.5529741,2748466
THIRROUL,NSW,2515,Illawarra,Illawarra,Residential,35,,,The Churches of Christ Property Trust,Religious,Major Cities of Australia,-34.32062679,150.9232246,1639390
NORTHMEAD,NSW,2152,Western Sydney,Sydney - Parramatta,Residential,121,,,Australian Unity Care Services Pty Ltd,Private Incorporated Body,Major Cities of Australia,-33.78881106,150.9787296,7465919
TUMUT,NSW,2720,Riverina/Murray,Riverina,Residential,30,,,Catholic Healthcare Limited,Charitable,Inner Regional Australia,-35.29806267,148.2190017,1962314
NORTH TURRAMURRA,NSW,2074,Northern Sydney,Sydney - North Sydney and Hornsby,Residential,113,,,Southern Cross Care (NSW & ACT),Religious,Major Cities of Australia,-33.70083735,151.1469716,6004496
NORMANHURST,NSW,2076,Northern Sydney,Sydney - North Sydney and Hornsby,Residential,94,,,Seventh-day Adventist Aged Care (Greater Sydney) Ltd,Private Incorporated Body,Major Cities of Australia,-33.72705723,151.0990233,5110581
WAITARA,NSW,2077,Northern Sydney,Sydney - North Sydney and Hornsby,Residential,73,,,Catholic Healthcare Limited,Charitable,Major Cities of Australia,-33.71191325,151.1048012,3837126
MOUNT WARRIGAL,NSW,2528,Illawarra,Illawarra,Residential,40,,,Warrigal Care,Charitable,Major Cities of Australia,-34.54768467,150.8440831,2065807
WAVERLEY,NSW,2024,South East Sydney,Sydney - Eastern Suburbs,Residential,41,,,The Uniting Church in Australia Property Trust (NSW),Religious,Major Cities of Australia,-33.89689662,151.2519608,2224251
WESTMEAD,NSW,2145,Western Sydney,Sydney - Parramatta,Residential,48,,,The Uniting Church in Australia Property Trust (NSW),Religious,Major Cities of Australia,-33.80581716,150.992611,2511760
WINGHAM,NSW,2429,Mid North Coast,Mid North Coast,Residential,82,,,The Frank Whiddon Masonic Homes of New South Wales,Charitable,Inner Regional Australia,-31.86920075,152.3707146,4867961
WINSTON HILLS,NSW,2153,Western Sydney,Sydney - Baulkham Hills and Hawkesbury,Residential,122,,,Anglican Community Services,Religious,Major Cities of Australia,-33.77693706,150.9759948,5687319
WOLLONGONG,NSW,2500,Illawarra,Illawarra,Residential,63,,,Illawarra Retirement Trust,Community Based,Major Cities of Australia,-34.42734794,150.8800214,2835219
WOONONA,NSW,2517,Illawarra,Illawarra,Residential,41,,,Illawarra Retirement Trust,Community Based,Major Cities of Australia,-34.34399136,150.9033075,1473870
WYEE,NSW,2259,Hunter,Central Coast,Residential,100,,,Bethshan Ministries Limited,Charitable,Major Cities of Australia,-33.17004419,151.4723694,6098989
WYOMING,NSW,2250,Central Coast,Central Coast,Residential,35,,,Adelene Retirement Village,Charitable,Major Cities of Australia,-33.41152635,151.3648161,1270803
YASS,NSW,2582,Southern Highlands,Capital Region,Residential,82,,,RSL LifeCare Limited,Community Based,Inner Regional Australia,-34.83111871,148.9122744,4367573
YOUNG,NSW,2594,Southern Highlands,Capital Region,Residential,83,,,Southern Cross Care (NSW & ACT),Religious,Inner Regional Australia,-34.322695,148.29131,4775091
WEST PENNANT HILLS,NSW,2125,Western Sydney,Sydney - Baulkham Hills and Hawkesbury,Residential,44,,,The Uniting Church in Australia Property Trust (NSW),Religious,Major Cities of Australia,-33.73698527,151.0225545,2154682
HORNSBY,NSW,2077,Northern Sydney,Sydney - North Sydney and Hornsby,Residential,24,,,Christophorus House Retirement Village,Community Based,Major Cities of Australia,-33.6966924,151.0987175,519469
BERKELEY,NSW,2506,Illawarra,Illawarra,Residential,33,,,Catholic Healthcare Limited,Charitable,Major Cities of Australia,-34.48289788,150.8431883,1965739
NEW LAMBTON,NSW,2305,Hunter,Newcastle and Lake Macquarie,Residential,51,,,Catholic Healthcare Limited,Charitable,Major Cities of Australia,-32.93508674,151.7152755,2515853
WALLSEND,NSW,2287,Hunter,Newcastle and Lake Macquarie,Residential,72,,,United Protestant Association of NSW Limited,Charitable,Major Cities of Australia,-32.91254277,151.659999,5215370
LAKEMBA,NSW,2195,Inner West,Sydney - Inner South West,Residential,50,,,Royal Freemasons' Benevolent Institution,Charitable,Major Cities of Australia,-33.92391248,151.0762091,3565455
NARRANDERA,NSW,2700,Riverina/Murray,Riverina,Residential,45,,,RSL LifeCare Limited,Community Based,Outer Regional Australia,-34.74811985,146.5494843,2259928
MULLUMBIMBY,NSW,2482,Far North Coast,Richmond - Tweed,Residential,55,,,Catholic Healthcare Limited,Charitable,Inner Regional Australia,-28.55901471,153.4909277,3122970
BANKSTOWN,NSW,2200,South West Sydney,Sydney - Inner South West,Residential,45,,,Bankstown City Aged Care Ltd,Community Based,Major Cities of Australia,-33.91222,151.020598,1783660
TUNCURRY,NSW,2428,Mid North Coast,Mid North Coast,Residential,146,,,Great Lakes Aged & Invalid Care Association Ltd,Community Based,Inner Regional Australia,-32.16756731,152.4967062,8866314
PENRITH,NSW,2750,Nepean,Sydney - Outer West and Blue Mountains,Residential,59,,,Anglican Community Services,Religious,Major Cities of Australia,-33.75261083,150.7103632,3831040
HAY,NSW,2711,Riverina/Murray,Murray,Residential,24,,,Hay Senior Citizens Association Incorporated,Community Based,Outer Regional Australia,-34.50173,144.85255,827564
COWRA,NSW,2794,Central West,Central West,Residential,82,,,Cowra Retirement Village Ltd,Charitable,Inner Regional Australia,-33.823685,148.69388,4387595
DUBBO,NSW,2830,Orana Far West,Far West and Orana,Residential,72,,,United Protestant Association of NSW Limited,Charitable,Inner Regional Australia,-32.26121987,148.6003671,3240301
GILGANDRA,NSW,2827,Orana Far West,Far West and Orana,Residential,50,,,Gilgandra Council,Local Government,Outer Regional Australia,-31.703966,148.663309,2215189
PORT MACQUARIE,NSW,2444,Mid North Coast,Mid North Coast,Residential,125,,,The Trustees of the Roman Catholic Church for the Diocese of Lismore,Religious,Inner Regional Australia,-31.45752086,152.8999561,4736734
NARRABRI,NSW,2390,New England,New England and North West,Residential,54,,,The Frank Whiddon Masonic Homes of New South Wales,Charitable,Outer Regional Australia,-30.32497977,149.7779045,2654917
BELMONT,NSW,2280,Hunter,Newcastle and Lake Macquarie,Residential,56,,,The Frank Whiddon Masonic Homes of New South Wales,Charitable,Major Cities of Australia,-33.03618876,151.6660629,2754010
CARCOAR,NSW,2791,Central West,Central West,Residential,22,,,Uralba (Carcoar) Incorporated,Community Based,Inner Regional Australia,-33.61648451,149.1426066,850639
ALBURY,NSW,2640,Riverina/Murray,Murray,Residential,66,,,The Churches of Christ Property Trust,Religious,Inner Regional Australia,-36.07652857,146.9368992,3068776
RICHMOND,NSW,2753,Nepean,Sydney - Outer West and Blue Mountains,Residential,134,,,The Uniting Church in Australia Property Trust (NSW),Religious,Major Cities of Australia,-33.595922,150.744046,8708742
WELLINGTON,NSW,2820,Orana Far West,Far West and Orana,Residential,60,,,Maranatha House,Community Based,Outer Regional Australia,-32.54889026,148.9524448,3361500
BANORA POINT,NSW,2486,Far North Coast,Richmond - Tweed,Residential,40,,,RSL Care RDNS Limited,Charitable,Major Cities of Australia,-28.21152723,153.5422503,2419023
CHESTER HILL,NSW,2162,South West Sydney,Sydney - Parramatta,Residential,50,,,Bankstown City Aged Care Ltd,Community Based,Major Cities of Australia,-33.88944352,150.9981591,2245308
BLACKTOWN,NSW,2148,Western Sydney,Sydney - Blacktown,Residential,50,,,The Congregation of the Dominican Sisters of Malta in New South Wales,Religious,Major Cities of Australia,-33.7873406,150.8931876,1985806
WOY WOY,NSW,2256,Central Coast,Central Coast,Residential,43,,,Woy Woy Community Aged Care Ltd,Community Based,Major Cities of Australia,-33.49729589,151.3221768,2245595
TAREE,NSW,2430,Mid North Coast,Mid North Coast,Residential,117,,,Anglican Care,Charitable,Inner Regional Australia,-31.8979741,152.4723242,5645053
PEAKHURST,NSW,2210,South East Sydney,Sydney - Inner South West,Residential,114,,,The Uniting Church in Australia Property Trust (NSW),Religious,Major Cities of Australia,-33.9562902,151.0683671,6731625
NORAH HEAD,NSW,2263,Central Coast,Central Coast,Residential,53,,,Aurrum Pty Limited,Private Incorporated Body,Major Cities of Australia,-33.28401478,151.5684997,3031311
MOUNT HUTTON,NSW,2290,Hunter,Newcastle and Lake Macquarie,Residential,42,,,Anglican Care,Charitable,Major Cities of Australia,-32.98570693,151.6699144,2059728
BOORAGUL,NSW,2284,Hunter,Newcastle and Lake Macquarie,Residential,63,,,Anglican Care,Charitable,Major Cities of Australia,-32.979376,151.604502,3938631
CRONULLA,NSW,2230,South East Sydney,Sydney - Sutherland,Residential,75,,,Stella Maris Aged Care Facility,Religious,Major Cities of Australia,-34.06163515,151.1555167,5052122
GLENFIELD,NSW,2167,South West Sydney,Sydney - Outer South West,Residential,48,,,The Frank Whiddon Masonic Homes of New South Wales,Charitable,Major Cities of Australia,-33.97702387,150.9002088,3037877
GLENFIELD,NSW,2167,South West Sydney,Sydney - Outer South West,Residential,197,,,The Frank Whiddon Masonic Homes of New South Wales,Charitable,Major Cities of Australia,-33.97702387,150.9002088,11115543
LAVINGTON,NSW,2641,Riverina/Murray,Murray,Residential,60,,,United Protestant Association of NSW Limited,Charitable,Inner Regional Australia,-36.04998927,146.937888,4400686
EDEN,NSW,2551,Southern Highlands,Capital Region,Residential,28,,,RSL LifeCare Limited,Community Based,Outer Regional Australia,-37.06281971,149.8970998,1536749
HOWLONG,NSW,2643,Riverina/Murray,Murray,Residential,21,,,United Protestant Association of NSW Limited,Charitable,Inner Regional Australia,-35.98010238,146.6244832,1230109
KIRRAWEE,NSW,2232,South East Sydney,Sydney - Sutherland,Residential,40,,,Catholic Healthcare Limited,Charitable,Major Cities of Australia,-34.04009239,151.0737298,2152128
BANGOR,NSW,2234,South East Sydney,Sydney - Sutherland,Residential,130,,,BaptistCare NSW & ACT,Charitable,Major Cities of Australia,-34.01697625,151.027584,7871863
FORSTER,NSW,2428,Mid North Coast,Mid North Coast,Residential,152,,,BaptistCare NSW & ACT,Charitable,Inner Regional Australia,-32.19779899,152.5254877,9153759
MARRICKVILLE,NSW,2204,Inner West,Sydney - City and Inner South,Residential,41,,,The Uniting Church in Australia Property Trust (NSW),Religious,Major Cities of Australia,-33.91557607,151.1503291,2231833
NAMBUCCA HEADS,NSW,2448,Mid North Coast,Mid North Coast,Residential,40,,,Nambucca Valley Care Ltd,Community Based,Outer Regional Australia,-30.646582,152.994801,1984430
COFFS HARBOUR,NSW,2450,Mid North Coast,Coffs Harbour - Grafton,Residential,61,,,Royal Freemasons' Benevolent Institution,Charitable,Inner Regional Australia,-30.27731496,153.1031486,3676104
GRAFTON,NSW,2460,Far North Coast,Coffs Harbour - Grafton,Residential,54,,,Clarence Village Limited,Community Based,Inner Regional Australia,-29.67327554,152.9392609,3429203
BOOROWA,NSW,2586,Southern Highlands,Capital Region,Residential,12,,,Boorowa Hostel Incorporated,Community Based,Inner Regional Australia,-34.442832,148.727783,541371
COFFS HARBOUR,NSW,2450,Mid North Coast,Coffs Harbour - Grafton,Residential,112,,,Catholic Healthcare Limited,Charitable,Inner Regional Australia,-30.2987552,153.1063925,6539418
DARLINGHURST,NSW,2010,South East Sydney,Sydney - City and Inner South,Residential,68,,,Catholic Healthcare Limited,Charitable,Major Cities of Australia,-33.883771,151.215982,3278426
WOOLLAHRA,NSW,2025,South East Sydney,Sydney - Eastern Suburbs,Residential,50,,,Sir Moses Montefiore Jewish Home,Religious,Major Cities of Australia,-33.888844,151.2432781,1790118
KEMPS CREEK,NSW,2178,Nepean,Sydney - South West,Residential,64,,,Catholic Healthcare Limited,Charitable,Major Cities of Australia,-33.82920307,150.7910313,4265783
PARKES,NSW,2870,Central West,Central West,Residential,42,,,Southern Cross Care (NSW & ACT),Religious,Outer Regional Australia,-33.13707579,148.1632263,2538823
BATHURST,NSW,2795,Central West,Central West,Residential,45,,,Royal Freemasons' Benevolent Institution,Charitable,Inner Regional Australia,-33.41685123,149.5728476,2726022
KELSO,NSW,2795,Central West,Central West,Residential,112,,,The Frank Whiddon Masonic Homes of New South Wales,Charitable,Inner Regional Australia,-33.40709507,149.610307,5990938
BINGARA,NSW,2404,New England,New England and North West,Residential,28,,,Touriandi Limited,Community Based,Outer Regional Australia,-29.87289975,150.5826672,1326344
PEAK HILL,NSW,2869,Central West,Central West,Residential,10,,,Frazer Court Committee Incorporated,Community Based,Outer Regional Australia,-32.72266707,148.1938533,489667
WARIALDA,NSW,2402,New England,New England and North West,Residential,36,,,Gwydir Shire Council,Local Government,Outer Regional Australia,-29.5387649,150.5803956,1406514
EDGECLIFF,NSW,2027,South East Sydney,Sydney - Eastern Suburbs,Residential,39,,,St Vincent's Care Services Ltd.,Religious,Major Cities of Australia,-33.88086145,151.2383493,1657051
GULGONG,NSW,2852,Orana Far West,Central West,Residential,25,,,Gulgong Hostel Association Inc,Community Based,Outer Regional Australia,-32.36519491,149.5417243,977154
ARMIDALE,NSW,2350,New England,New England and North West,Residential,50,,,Autumn Lodge,Community Based,Inner Regional Australia,-30.50335832,151.660599,3430183
KINGSCLIFF,NSW,2487,Far North Coast,Richmond - Tweed,Residential,70,,,Wommin Bay Hostels Ltd,Community Based,Major Cities of Australia,-28.235722,153.565379,3620727
LOCKHART,NSW,2656,Riverina/Murray,Riverina,Residential,23,,,Lockhart and District Aged Care Association Inc,Community Based,Outer Regional Australia,-35.22233434,146.7190682,1013959
CHATSWOOD,NSW,2067,Northern Sydney,Sydney - North Sydney and Hornsby,Residential,70,,,Dougherty Apartments Retirement Housing Project,Charitable,Major Cities of Australia,-33.7995371,151.1828872,4190153
LAURIETON,NSW,2443,Mid North Coast,Mid North Coast,Residential,60,,,The Frank Whiddon Masonic Homes of New South Wales,Charitable,Inner Regional Australia,-31.64615854,152.7941744,3621790
STROUD,NSW,2425,Mid North Coast,Mid North Coast,Residential,31,,,Stroud Community Lodge Inc,Community Based,Inner Regional Australia,-32.40125147,151.96509,1153635
NARROMINE,NSW,2821,Orana Far West,Far West and Orana,Residential,47,,,Timbrebongie House Inc,Community Based,Outer Regional Australia,-32.24308968,148.2401345,2400507
GUNDAGAI,NSW,2722,Riverina/Murray,Riverina,Residential,19,,,Gundagai and District Hostel Accommodation Inc,Community Based,Inner Regional Australia,-35.05236321,148.1021917,460601
LEWISHAM,NSW,2049,Inner West,Sydney - City and Inner South,Residential,40,,,Catholic Healthcare Limited,Charitable,Major Cities of Australia,-33.89179759,151.1480718,2347352
EARLWOOD,NSW,2206,Inner West,Sydney - Inner South West,Residential,48,,,The Greek Orthodox Community of New South Wales Ltd,Charitable,Major Cities of Australia,-33.92154312,151.1187337,3395860
SANS SOUCI,NSW,2219,South East Sydney,Sydney - Inner South West,Residential,38,,,Thomas Holt,Community Based,Major Cities of Australia,-33.98911116,151.1435169,2015511
MACQUARIE PARK,NSW,2113,Northern Sydney,Sydney - Ryde,Residential,80,,,BaptistCare NSW & ACT,Charitable,Major Cities of Australia,-33.77827774,151.1109563,4132230
ALBION PARK RAIL,NSW,2527,Illawarra,Illawarra,Residential,149,,,Warrigal Care,Charitable,Major Cities of Australia,-34.5725931,150.7997503,8725059
ELEEBANA,NSW,2282,Hunter,Newcastle and Lake Macquarie,Residential,52,,,Calvary Retirement Communities Hunter-Manning Ltd,Religious,Major Cities of Australia,-32.99844222,151.644475,3377132
REDHEAD,NSW,2290,Hunter,Newcastle and Lake Macquarie,Residential,60,,,The Frank Whiddon Masonic Homes of New South Wales,Charitable,Major Cities of Australia,-33.00885342,151.7108687,3773925
EDGEWORTH,NSW,2285,Hunter,Newcastle and Lake Macquarie,Residential,71,,,Royal Freemasons' Benevolent Institution,Charitable,Major Cities of Australia,-32.92558027,151.604632,4672797
WEE WAA,NSW,2840,New England,Far West and Orana,Residential,30,,,The Frank Whiddon Masonic Homes of New South Wales,Charitable,Outer Regional Australia,-30.22303344,149.4487616,1752652
WEST PENNANT HILLS,NSW,2125,Western Sydney,Sydney - Baulkham Hills and Hawkesbury,Residential,45,,,Southern Cross Care (NSW & ACT),Religious,Major Cities of Australia,-33.74829037,151.0294113,2320269
MOLONG,NSW,2866,Central West,Central West,Residential,28,,,United Protestant Association of NSW Limited,Charitable,Inner Regional Australia,-33.09053355,148.8674132,1634401
HABERFIELD,NSW,2045,Inner West,Sydney - Inner West,Residential,50,,,Trustees of Catholic Aged Care Sydney,Religious,Major Cities of Australia,-33.87619436,151.1463296,2933134
YEOVAL,NSW,2868,Orana Far West,Far West and Orana,Residential,17,,,United Protestant Association of NSW Limited,Charitable,Outer Regional Australia,-32.75030022,148.6498586,838864
MOULAMEIN,NSW,2733,Riverina/Murray,Murray,Residential,17,,,Moulamein Retirement Village Committee Inc,Community Based,Outer Regional Australia,-35.09011163,144.0362003,922609
GLEN INNES,NSW,2370,New England,New England and North West,Residential,51,,,Royal Freemasons' Benevolent Institution,Charitable,Outer Regional Australia,-29.73650323,151.7281524,3073773
COOLAMON,NSW,2701,Riverina/Murray,Riverina,Residential,33,,,Coolamon Shire Council,Local Government,Inner Regional Australia,-34.81290041,147.1974604,877982
TENTERFIELD,NSW,2372,New England,New England and North West,Residential,36,,,Tenterfield Care Centre Limited,Charitable,Outer Regional Australia,-29.04228982,152.0201347,1295715
WOOLGOOLGA,NSW,2456,Mid North Coast,Coffs Harbour - Grafton,Residential,66,,,Woolgoolga and District Retirement Village Ltd,Community Based,Inner Regional Australia,-30.11679869,153.2009455,3323677
NORAVILLE,NSW,2263,Central Coast,Central Coast,Residential,76,,,Vietnam Veterans Keith Payne VC Hostel Ltd,Community Based,Major Cities of Australia,-33.27508297,151.5498577,4252692
HOLBROOK,NSW,2644,Riverina/Murray,Murray,Residential,21,,,United Protestant Association of NSW Limited,Charitable,Inner Regional Australia,-35.72144445,147.3129783,1331499
POINT CLARE,NSW,2250,Central Coast,Central Coast,Residential,11,,,Hamersley Nursing Home (WA) Pty Ltd,Private Incorporated Body,Major Cities of Australia,-33.4393194,151.3151349,579205
WENTWORTH,NSW,2648,Orana Far West,Murray,Residential,55,,,Wentworth District Hostel Society Inc,Community Based,Outer Regional Australia,-34.10911799,141.9157428,2937501
HENTY,NSW,2658,Riverina/Murray,Murray,Residential,20,,,United Protestant Association of NSW Limited,Charitable,Inner Regional Australia,-35.51555931,147.0318132,1065243
JUNEE,NSW,2663,Riverina/Murray,Riverina,Residential,22,,,Junee Hostel for the Aged Inc,Community Based,Inner Regional Australia,-34.86641153,147.5885977,794795
CESSNOCK,NSW,2325,Hunter,Hunter Valley exc Newcastle,Residential,45,,,Northern Coalfields Community Care Association Ltd,Community Based,Inner Regional Australia,-32.82639348,151.3474204,1904445
CESSNOCK,NSW,2325,Hunter,Hunter Valley exc Newcastle,Residential,42,,,Northern Coalfields Community Care Association Ltd,Community Based,Inner Regional Australia,-32.83209337,151.3499359,1785870
KILLARNEY VALE,NSW,2261,Central Coast,Central Coast,Residential,40,,,Central Coast Community Care Association Limited,Charitable,Major Cities of Australia,-33.35979432,151.4554164,2179155
CHATSWOOD,NSW,2067,Northern Sydney,Sydney - North Sydney and Hornsby,Residential,40,,,Willoughby Retirement Community Association,Community Based,Major Cities of Australia,-33.78708081,151.1945256,690100
KANDOS,NSW,2848,Orana Far West,Central West,Residential,19,,,RSL LifeCare Limited,Community Based,Inner Regional Australia,-32.85842584,149.979617,1112957
GLOUCESTER,NSW,2422,Mid North Coast,Mid North Coast,Residential,20,,,Hunter New England Local Health District,State Government,Inner Regional Australia,-32.01501032,151.9637295,476311
HAWKS NEST,NSW,2324,Mid North Coast,Hunter Valley exc Newcastle,Residential,64,,,RSL LifeCare Limited,Community Based,Inner Regional Australia,-32.67496577,152.1744311,2581962
WARRAWONG,NSW,2502,Illawarra,Illawarra,Residential,92,,,Multicultural Aged Care Illawarra Ltd,Community Based,Major Cities of Australia,-34.48115173,150.8789519,4214496
BLAYNEY,NSW,2799,Central West,Central West,Residential,25,,,Lee Hostel Committee Inc,Community Based,Inner Regional Australia,-33.53726554,149.2499052,1626170
HILLSTON,NSW,2675,Riverina/Murray,Riverina,Residential,17,,,Lachlan Lodge Inc,Community Based,Remote Australia,-33.4794328,145.5388385,708537
BATEAU BAY,NSW,2261,Central Coast,Central Coast,Residential,32,,,The Uniting Church in Australia Property Trust (NSW),Religious,Major Cities of Australia,-33.37428044,151.4793683,1873456
MURRURUNDI,NSW,2338,Hunter,Hunter Valley exc Newcastle,Residential,25,,,Murravale Retirement Home Ltd,Community Based,Outer Regional Australia,-31.76757683,150.8420031,1534980
BROULEE,NSW,2537,Southern Highlands,Capital Region,Residential,80,,,Banksia Villages Ltd,Charitable,Inner Regional Australia,-35.85004973,150.1707905,2485544
NORTH NOWRA,NSW,2541,Illawarra,Southern Highlands and Shoalhaven,Residential,123,,,The Churches of Christ Property Trust,Religious,Inner Regional Australia,-34.85602682,150.583689,7531021
SUSSEX INLET,NSW,2540,Illawarra,Southern Highlands and Shoalhaven,Residential,40,,,Inasmuch Community Inc,Community Based,Inner Regional Australia,-35.16816904,150.5928909,2202932
MAITLAND,NSW,2320,Hunter,Hunter Valley exc Newcastle,Residential,41,,,Calvary Retirement Communities Hunter-Manning Ltd,Religious,Major Cities of Australia,-32.72244922,151.5430367,2830784
LARGS,NSW,2320,Hunter,Hunter Valley exc Newcastle,Residential,49,,,The Frank Whiddon Masonic Homes of New South Wales,Charitable,Major Cities of Australia,-32.69377895,151.6006925,2463917
ORANGE,NSW,2800,Central West,Central West,Residential,16,,,The Uniting Church in Australia Property Trust (NSW),Religious,Inner Regional Australia,-33.27733759,149.0965499,659623
MOUNT AUSTIN,NSW,2650,Riverina/Murray,Riverina,Residential,83,,,RSL LifeCare Limited,Community Based,Inner Regional Australia,-35.13658074,147.3473321,5165636
WEST ALBURY,NSW,2640,Riverina/Murray,Murray,Residential,29,,,Allity Pty Ltd,Private Incorporated Body,Inner Regional Australia,-36.07768123,146.8910438,1727912
MORUYA,NSW,2537,Southern Highlands,Capital Region,Residential,31,,,Illawarra Retirement Trust,Community Based,Inner Regional Australia,-35.90437104,150.0683543,1615816
ST GEORGES BASIN,NSW,2540,Illawarra,Southern Highlands and Shoalhaven,Residential,89,,,Illawarra Retirement Trust,Community Based,Inner Regional Australia,-35.09733574,150.5970807,4461131
RYDE,NSW,2112,Northern Sydney,Sydney - Ryde,Residential,52,,,Calvary Retirement Community Ryde Limited,Religious,Major Cities of Australia,-33.81790706,151.1096713,2858483
ASHFORD,NSW,2361,New England,New England and North West,Residential,18,,,Ashford Ageing Care Facility Inc,Charitable,Outer Regional Australia,-29.319309,151.090848,930081
LIVERPOOL,NSW,2170,South West Sydney,Sydney - South West,Residential,41,,,The Uniting Church in Australia Property Trust (NSW),Religious,Major Cities of Australia,-33.93653707,150.9124096,2623551
KOOTINGAL,NSW,2352,New England,New England and North West,Residential,53,,,Royal Freemasons' Benevolent Institution,Charitable,Inner Regional Australia,-31.063154,151.039599,2913816
NORTH TURRAMURRA,NSW,2074,Northern Sydney,Sydney - North Sydney and Hornsby,Residential,24,,,HammondCare,Charitable,Major Cities of Australia,-33.69536169,151.1465422,1195526
BERRIDALE,NSW,2628,Southern Highlands,Capital Region,Residential,14,,,Snowy Monaro Regional Council,Local Government,Outer Regional Australia,-36.36425254,148.8237114,405892
COOMA,NSW,2630,Southern Highlands,Capital Region,Residential,40,,,Snowy Monaro Regional Council,Local Government,Inner Regional Australia,-36.21997288,149.1305056,1300917
GUNNEDAH,NSW,2380,New England,New England and North West,Residential,41,,,Mackellar Care Services Ltd,Community Based,Outer Regional Australia,-30.98210483,150.2515821,1833118
CHESTER HILL,NSW,2162,South West Sydney,Sydney - Parramatta,Residential,91,,,The Abel Tasman Village Association Ltd,Community Based,Major Cities of Australia,-33.88301488,151.0001665,3507963
CARRAMAR,NSW,2163,South West Sydney,Sydney - Parramatta,Residential,85,,,United Protestant Association of NSW Limited,Charitable,Major Cities of Australia,-33.87952931,150.9640705,5752090
KEMPSEY,NSW,2440,Mid North Coast,Mid North Coast,Residential,66,,,Cedar Place Aged Care Facility Limited,Community Based,Inner Regional Australia,-31.06128107,152.8291005,2902079
GUYRA,NSW,2365,New England,New England and North West,Residential,22,,,Armidale Regional Council,Local Government,Outer Regional Australia,-30.21429871,151.6763647,878972
URALLA,NSW,2358,New England,New England and North West,Residential,36,,,Council of the Shire of Uralla,Local Government,Outer Regional Australia,-30.64020832,151.5043445,2271503
WALGETT,NSW,2832,Orana Far West,Far West and Orana,Residential,8,,,The Frank Whiddon Masonic Homes of New South Wales,Charitable,Remote Australia,-30.0183299,148.1175748,580696
WALCHA,NSW,2354,New England,New England and North West,Residential,31,,,The Presbyterian Church (New South Wales) Property Trust,Religious,Outer Regional Australia,-30.9817551,151.5947457,1151178
BOURKE,NSW,2840,Orana Far West,Far West and Orana,Residential,12,,,The Frank Whiddon Masonic Homes of New South Wales,Charitable,Very Remote Australia,-30.08766438,145.9413552,310702
CANLEY VALE,NSW,2166,South West Sydney,Sydney - South West,Residential,79,,,Australian Chinese & Descendants Mutual Association Inc,Community Based,Major Cities of Australia,-33.88583864,150.94523,4222037
COBAR,NSW,2835,Orana Far West,Far West and Orana,Residential,15,,,Cobar Shire Council,Local Government,Remote Australia,-31.50705334,145.8255073,868829
ROOTY HILL,NSW,2766,Western Sydney,Sydney - Blacktown,Residential,84,,,Residential Gardens For Spanish Speaking Frail Aged Limited,Community Based,Major Cities of Australia,-33.75894411,150.8327928,4821004
NORTH NOWRA,NSW,2541,Illawarra,Southern Highlands and Shoalhaven,Residential,21,,,Illaroo Co-operative Aboriginal Corporation,Community Based,Inner Regional Australia,-34.85776333,150.5753881,978462
WARATAH,NSW,2298,Hunter,Newcastle and Lake Macquarie,Residential,187,,,Tinonee Gardens the Multicultural Village Ltd,Charitable,Major Cities of Australia,-32.90987019,151.7247025,11024771
ST JOHNS PARK,NSW,2176,South West Sydney,Sydney - South West,Residential,144,,,Australian-Croatian Cardinal Stepinac Association Limited,Charitable,Major Cities of Australia,-33.87710272,150.9021543,10091291
MERRIWA,NSW,2329,Hunter,Hunter Valley exc Newcastle,Residential,16,,,Upper Hunter Shire Council,Local Government,Outer Regional Australia,-32.13872623,150.3579196,694287
COORANBONG,NSW,2265,Hunter,Newcastle and Lake Macquarie,Residential,40,,,Seventh-day Adventist Aged Care (North New South Wales) Ltd,Charitable,Major Cities of Australia,-33.07686263,151.4519758,2408686
ROOTY HILL,NSW,2766,Western Sydney,Sydney - Blacktown,Residential,51,,,Serbian Orthodox Diocese Aged Care and Education Property Fund,Charitable,Major Cities of Australia,-33.75107646,150.8333942,2640397
ORANGE,NSW,2800,Central West,Central West,Residential,53,,,Catholic Healthcare Limited,Charitable,Inner Regional Australia,-33.27912008,149.0909437,4289068
BERRIGAN,NSW,2712,Riverina/Murray,Murray,Residential,30,,,Berrigan and District Aged Care Association Ltd,Community Based,Outer Regional Australia,-35.66302271,145.8126435,1675131
WAVERLEY,NSW,2024,South East Sydney,Sydney - Eastern Suburbs,Residential,42,,,The Uniting Church in Australia Property Trust (NSW),Religious,Major Cities of Australia,-33.89762664,151.2597896,2230287
TAMWORTH,NSW,2340,New England,New England and North West,Residential,60,,,The Uniting Church in Australia Property Trust (NSW),Religious,Inner Regional Australia,-31.07185098,150.9180858,3172513
HAMMONDVILLE,NSW,2170,South West Sydney,Sydney - South West,Residential,40,,,HammondCare,Charitable,Major Cities of Australia,-33.94949602,150.9594265,2197981
BLACKTOWN,NSW,2148,Western Sydney,Sydney - Blacktown,Residential,65,,,The Uniting Church in Australia Property Trust (NSW),Religious,Major Cities of Australia,-33.77822281,150.9160875,4211704
PLUMPTON,NSW,2761,Western Sydney,Sydney - Blacktown,Residential,50,,,Southern Cross Care (NSW & ACT),Religious,Major Cities of Australia,-33.74485561,150.8332216,3505484
WINDSOR,NSW,2756,Nepean,Sydney - Baulkham Hills and Hawkesbury,Residential,48,,,Fitzgerald Memorial Aged Care Facility Limited,Community Based,Major Cities of Australia,-33.60909914,150.8211196,2408115
WAVERLEY,NSW,2024,South East Sydney,Sydney - Eastern Suburbs,Residential,55,,,Trustees of the Christian Brothers,Religious,Major Cities of Australia,-33.90130184,151.2552862,1991114
GERRINGONG,NSW,2534,Illawarra,Illawarra,Residential,25,,,The Uniting Church in Australia Property Trust (NSW),Religious,Inner Regional Australia,-34.74737134,150.8225316,1481553
COLEAMBALLY,NSW,2707,Riverina/Murray,Riverina,Residential,19,,,Cypress View Lodge Limited,Charitable,Outer Regional Australia,-34.8086867,145.8803872,764019
PEAKHURST,NSW,2210,South East Sydney,Sydney - Inner South West,Residential,92,,,Illawarra Retirement Trust,Community Based,Major Cities of Australia,-33.96232087,151.0596463,2614473
KURRI KURRI,NSW,2327,Hunter,Hunter Valley exc Newcastle,Residential,91,,,Royal Freemasons' Benevolent Institution,Charitable,Major Cities of Australia,-32.82504973,151.4650818,6244633
PORTLAND,NSW,2847,Central West,Central West,Residential,22,,,NSW State Government (NSW Ministry of Health),State Government,Inner Regional Australia,-33.35798811,149.9788021,920946
ALLAMBIE HEIGHTS,NSW,2100,Northern Sydney,Sydney - Northern Beaches,Residential,42,,,Allambie Heights Village Ltd,Religious,Major Cities of Australia,-33.761785,151.2446317,1492034
YAMBA,NSW,2464,Far North Coast,Coffs Harbour - Grafton,Residential,86,,,The Uniting Church in Australia Property Trust (NSW),Religious,Inner Regional Australia,-29.43764173,153.3462784,5349549
DACEYVILLE,NSW,2032,South East Sydney,Sydney - Eastern Suburbs,Residential,58,,,Southern Cross Care (NSW & ACT),Religious,Major Cities of Australia,-33.93036453,151.2250307,2442186
YENNORA,NSW,2161,South West Sydney,Sydney - Parramatta,Residential,141,,,Trustees of Catholic Aged Care Sydney,Religious,Major Cities of Australia,-33.86775783,150.9673057,4673865
LEETON,NSW,2705,Riverina/Murray,Riverina,Residential,50,,,Southern Cross Care (NSW & ACT),Religious,Outer Regional Australia,-34.54117963,146.4081964,2786624
GRASMERE,NSW,2570,South West Sydney,Sydney - Outer South West,Residential,94,,,Carrington Centennial Care Limited,Private Incorporated Body,Major Cities of Australia,-34.05665981,150.6746141,4545630
SOUTH HURSTVILLE,NSW,2221,South East Sydney,Sydney - Inner South West,Residential,50,,,Anglican Community Services,Religious,Major Cities of Australia,-33.98067076,151.1069096,2470999
BERRY,NSW,2535,Illawarra,Southern Highlands and Shoalhaven,Residential,40,,,Royal Freemasons' Benevolent Institution,Charitable,Inner Regional Australia,-34.77720428,150.6937769,2140389
GOSFORD WEST,NSW,2250,Central Coast,Central Coast,Residential,106,,,Evergreen Life Care Limited,Charitable,Major Cities of Australia,-33.430088,151.32119,6122616
EAST GOSFORD,NSW,2250,Central Coast,Central Coast,Residential,39,,,The Presbyterian Church (New South Wales) Property Trust,Religious,Major Cities of Australia,-33.43937938,151.3553768,1957107
KANAHOOKA,NSW,2530,Illawarra,Illawarra,Residential,160,,,Illawarra Retirement Trust,Community Based,Major Cities of Australia,-34.48837693,150.8123026,8812387
COFFS HARBOUR,NSW,2450,Mid North Coast,Coffs Harbour - Grafton,Residential,6,,,Waratah Respite Centre (Mid North Coast) Inc,Community Based,Inner Regional Australia,-30.30228329,153.1153154,277740
BOLTON POINT,NSW,2283,Hunter,Newcastle and Lake Macquarie,Residential,89,,,RSL Care RDNS Limited,Charitable,Major Cities of Australia,-33.00232609,151.6150926,5639149
BURRADOO,NSW,2576,South West Sydney,Southern Highlands and Shoalhaven,Residential,93,,,Harbison Memorial Retirement Village,Community Based,Inner Regional Australia,-34.5054661,150.4070216,4059426
CASINO,NSW,2470,Far North Coast,Richmond - Tweed,Residential,30,,,United Protestant Association of NSW Limited,Charitable,Inner Regional Australia,-28.86458554,153.0419705,2134054
CASTLE HILL,NSW,2154,Northern Sydney,Sydney - Baulkham Hills and Hawkesbury,Residential,128,,,Anglican Community Services,Religious,Major Cities of Australia,-33.72794266,151.0196068,5692598
COLLAROY,NSW,2097,Northern Sydney,Sydney - Northern Beaches,Residential,126,,,The Salvation Army (NSW) Property Trust,Charitable,Major Cities of Australia,-33.73533319,151.3010167,7178642
DEE WHY,NSW,2099,Northern Sydney,Sydney - Northern Beaches,Residential,52,,,The Salvation Army (NSW) Property Trust,Charitable,Major Cities of Australia,-33.75205108,151.2855427,3408089
EDGEWORTH,NSW,2285,Hunter,Newcastle and Lake Macquarie,Residential,30,,,Royal Freemasons' Benevolent Institution,Charitable,Major Cities of Australia,-32.92558027,151.604632,1957576
MEREWETHER,NSW,2291,Hunter,Newcastle and Lake Macquarie,Residential,42,,,The Salvation Army (NSW) Property Trust,Charitable,Major Cities of Australia,-32.94721928,151.7574682,2434651
SOUTH MURWILLUMBAH,NSW,2484,Far North Coast,Richmond - Tweed,Residential,44,,,United Protestant Association of NSW Limited,Charitable,Inner Regional Australia,-28.341111,153.399479,2658578
ELERMORE VALE,NSW,2287,Hunter,Newcastle and Lake Macquarie,Residential,108,,,The Uniting Church in Australia Property Trust (NSW),Religious,Major Cities of Australia,-32.91705337,151.6566866,6726508
STOCKTON,NSW,2295,Hunter,Newcastle and Lake Macquarie,Residential,130,,,The Presbyterian Church (New South Wales) Property Trust,Religious,Major Cities of Australia,-32.90834549,151.7804317,5670036
TURRAMURRA,NSW,2074,Northern Sydney,Sydney - North Sydney and Hornsby,Residential,49,,,The Uniting Church in Australia Property Trust (NSW),Religious,Major Cities of Australia,-33.73403779,151.1308678,1976386
NORTH TURRAMURRA,NSW,2074,Northern Sydney,Sydney - North Sydney and Hornsby,Residential,62,,,HammondCare,Charitable,Major Cities of Australia,-33.69536169,151.1465422,2855176
TWEED HEADS SOUTH,NSW,2486,Far North Coast,Richmond - Tweed,Residential,101,,,Southern Cross Care (NSW & ACT),Religious,Major Cities of Australia,-28.19933464,153.5422345,5485105
UMINA,NSW,2257,Central Coast,Central Coast,Residential,283,,,Peninsula Village Ltd,Community Based,Major Cities of Australia,-33.514015,151.310661,14764742
SCONE,NSW,2337,Hunter,Hunter Valley exc Newcastle,Residential,21,,,Strathearn Village,Community Based,Inner Regional Australia,-32.051022,150.877636,1135853
CESSNOCK,NSW,2325,Hunter,Hunter Valley exc Newcastle,Residential,65,,,Royal Freemasons' Benevolent Institution,Charitable,Inner Regional Australia,-32.83450974,151.3624218,3542585
CULBURRA BEACH,NSW,2540,Illawarra,Southern Highlands and Shoalhaven,Residential,40,,,Illawarra Retirement Trust,Community Based,Inner Regional Australia,-34.93502561,150.7411567,1851520
GOULBURN,NSW,2580,Southern Highlands,Capital Region,Residential,43,,,Royal Freemasons' Benevolent Institution,Charitable,Inner Regional Australia,-34.74585164,149.7463349,2401688
WAUCHOPE,NSW,2446,Mid North Coast,Mid North Coast,Residential,84,,,Bundaleer Care Services Ltd,Community Based,Inner Regional Australia,-31.46658628,152.7326594,4111162
COONAMBLE,NSW,2829,Orana Far West,Far West and Orana,Residential,30,,,Coonamble Hostel Association,Community Based,Remote Australia,-30.96418985,148.3884632,2033412
BYRON BAY,NSW,2481,Far North Coast,Richmond - Tweed,Residential,40,,,Feros Care Limited,Community Based,Inner Regional Australia,-28.64818188,153.6178374,1827342
ULMARRA,NSW,2462,Far North Coast,Coffs Harbour - Grafton,Residential,32,,,United Protestant Association of NSW Limited,Charitable,Inner Regional Australia,-29.63475165,153.0232094,2056396
GOROKAN,NSW,2263,Central Coast,Central Coast,Residential,65,,,Royal Freemasons' Benevolent Institution,Charitable,Major Cities of Australia,-33.24974,151.493343,4478960
BEGA,NSW,2550,Southern Highlands,Capital Region,Residential,31,,,Sapphire Coast Community Aged Care Ltd,Community Based,Outer Regional Australia,-36.67235491,149.8474796,1744366
BALRANALD,NSW,2715,Orana Far West,Murray,Residential,15,,,Balranald Shire Council,Local Government,Outer Regional Australia,-34.64011508,143.5614693,454283
BATEHAVEN,NSW,2536,Southern Highlands,Capital Region,Residential,95,,,Catholic Healthcare Limited,Charitable,Inner Regional Australia,-35.73928123,150.2029814,4921875
LANE COVE,NSW,2066,Northern Sydney,Sydney - North Sydney and Hornsby,Residential,42,,,The Uniting Church in Australia Property Trust (NSW),Religious,Major Cities of Australia,-33.81430525,151.1565626,2204767
BANORA POINT,NSW,2486,Far North Coast,Richmond - Tweed,Residential,40,,,Southern Cross Care (NSW & ACT),Religious,Major Cities of Australia,-28.21379771,153.5408975,2002159
SOUTH COOGEE,NSW,2034,South East Sydney,Sydney - Eastern Suburbs,Residential,41,,,Southern Cross Care (NSW & ACT),Religious,Major Cities of Australia,-33.93550092,151.2565989,2450677
GLADESVILLE,NSW,2111,Northern Sydney,Sydney - Ryde,Residential,41,,,Twilight House,Community Based,Major Cities of Australia,-33.83744821,151.1278146,1880220
WARATAH,NSW,2298,Hunter,Newcastle and Lake Macquarie,Residential,41,,,Calvary Retirement Communities Hunter-Manning Ltd,Religious,Major Cities of Australia,-32.89969998,151.7234455,2684816
ROSELANDS,NSW,2196,Inner West,Sydney - Inner South West,Residential,68,,,Leigh Place Aged Care,Community Based,Major Cities of Australia,-33.93957508,151.0643908,4353961
CASTLE HILL,NSW,2154,Western Sydney,Sydney - Baulkham Hills and Hawkesbury,Residential,48,,,Elderly Australian Chinese Homes (NSW) Co-operative Limited,Community Based,Major Cities of Australia,-33.741073,151.01554,2380020
GREENHILL,NSW,2440,Mid North Coast,Mid North Coast,Residential,60,,,Booroongen Djugun Limited,Community Based,Inner Regional Australia,-31.05476032,152.7931448,2819961
BELMONT,NSW,2280,Hunter,Newcastle and Lake Macquarie,Residential,50,,,Calvary Retirement Communities Hunter-Manning Ltd,Religious,Major Cities of Australia,-33.023057,151.667087,3459279
HAMILTON,NSW,2303,Hunter,Newcastle and Lake Macquarie,Residential,71,,,The Uniting Church in Australia Property Trust (NSW),Religious,Major Cities of Australia,-32.92153114,151.7393345,4258113
DUNGOG,NSW,2420,Hunter,Hunter Valley exc Newcastle,Residential,63,,,RSL LifeCare Limited,Community Based,Inner Regional Australia,-32.4002196,151.746005,3531808
MUDGEE,NSW,2850,Orana Far West,Central West,Residential,90,,,Kanandah Retirement Ltd,Community Based,Inner Regional Australia,-32.59366271,149.5840501,4113424
MOSS VALE,NSW,2577,South West Sydney,Southern Highlands and Shoalhaven,Residential,138,,,Harbison Memorial Retirement Village,Community Based,Inner Regional Australia,-34.5625914,150.3697449,6866504
MOSMAN,NSW,2088,Northern Sydney,Sydney - North Sydney and Hornsby,Residential,60,,,The Uniting Church in Australia Property Trust (NSW),Religious,Major Cities of Australia,-33.82365304,151.2427532,2666392
BANGALOW,NSW,2479,Far North Coast,Richmond - Tweed,Residential,64,,,Feros Care Limited,Community Based,Inner Regional Australia,-28.68757298,153.5297101,4094707
WEST WYALONG,NSW,2671,Riverina/Murray,Central West,Residential,63,,,Royal Freemasons' Benevolent Institution,Charitable,Outer Regional Australia,-33.91655173,147.1980333,4177969
TANILBA BAY,NSW,2319,Hunter,Hunter Valley exc Newcastle,Residential,41,,,Calvary Retirement Communities Hunter-Manning Ltd,Religious,Inner Regional Australia,-32.72821261,151.9945119,2600887
BANKSTOWN,NSW,2200,South West Sydney,Sydney - Inner South West,Residential,50,,,The Uniting Church in Australia Property Trust (NSW),Religious,Major Cities of Australia,-33.91373347,151.0326182,3351497
SUTHERLAND,NSW,2232,South East Sydney,Sydney - Sutherland,Residential,40,,,Southern Cross Care (NSW & ACT),Religious,Major Cities of Australia,-34.03247363,151.0605498,2123127
WOOLLAHRA,NSW,2025,South East Sydney,Sydney - Eastern Suburbs,Residential,53,,,The Uniting Church in Australia Property Trust (NSW),Religious,Major Cities of Australia,-33.8894051,151.2398991,2268247
RUSHCUTTERS BAY,NSW,2011,South East Sydney,Sydney - City and Inner South,Residential,116,,,Anglican Community Services,Religious,Major Cities of Australia,-33.87550299,151.2254957,7453695
DUBBO,NSW,2830,Orana Far West,Far West and Orana,Residential,128,,,Dubbo RSL Aged Care Association Ltd,Community Based,Inner Regional Australia,-32.254829,148.634778,6910650
WATERLOO,NSW,2017,South East Sydney,Sydney - City and Inner South,Residential,61,,,St Vincent De Paul Society NSW,Religious,Major Cities of Australia,-33.89720706,151.2091801,2967498
SURRY HILLS,NSW,2010,South East Sydney,Sydney - City and Inner South,Residential,60,,,Mission Australia,Charitable,Major Cities of Australia,-33.88007254,151.2111716,2996185
PEAKHURST,NSW,2210,South East Sydney,Sydney - Inner South West,Residential,64,,,The Uniting Church in Australia Property Trust (NSW),Religious,Major Cities of Australia,-33.95966149,151.0651605,3302147
LEURA,NSW,2780,Nepean,Sydney - Outer West and Blue Mountains,Residential,72,,,BaptistCare NSW & ACT,Charitable,Major Cities of Australia,-33.71389914,150.3434917,3985400
TORONTO,NSW,2283,Hunter,Newcastle and Lake Macquarie,Residential,80,,,Hunter Valley Care Pty Ltd,Private Incorporated Body,Major Cities of Australia,-33.00453487,151.598969,4439888
TOORMINA,NSW,2452,Mid North Coast,Coffs Harbour - Grafton,Residential,101,,,The Trustees of the Roman Catholic Church for the Diocese of Lismore Sawtell Catholic Care of the Aged Committee,Religious,Inner Regional Australia,-30.349535,153.089122,6308043
PENRITH,NSW,2750,Nepean,Sydney - Outer West and Blue Mountains,Residential,69,,,The Uniting Church in Australia Property Trust (NSW),Religious,Major Cities of Australia,-33.75257493,150.7090467,4352066
ERINA,NSW,2250,Central Coast,Central Coast,Residential,138,,,The Salvation Army (NSW) Property Trust,Charitable,Major Cities of Australia,-33.43845749,151.3780686,8831496
RHODES,NSW,2138,Inner West,Sydney - Inner West,Residential,62,,,Concord Community Hostel Limited,Community Based,Major Cities of Australia,-33.82659884,151.0892291,3960715
MOSMAN,NSW,2088,Northern Sydney,Sydney - North Sydney and Hornsby,Residential,44,,,Twilight House,Community Based,Major Cities of Australia,-33.83524981,151.2476611,1946325
NORTH TURRAMURRA,NSW,2074,Northern Sydney,Sydney - North Sydney and Hornsby,Residential,60,,,HammondCare,Charitable,Major Cities of Australia,-33.69536169,151.1465422,3761493
BOWENFELS,NSW,2790,Central West,Central West,Residential,54,,,Three Tree Lodge Lithgow Limited,Community Based,Inner Regional Australia,-33.49831953,150.1265026,2450217
ILLAWONG,NSW,2234,South East Sydney,Sydney - Sutherland,Residential,125,,,Farad Nominees Pty Ltd,Private Incorporated Body,Major Cities of Australia,-33.99740002,151.0276667,7363800
CASTLE HILL,NSW,2154,Northern Sydney,Sydney - Baulkham Hills and Hawkesbury,Residential,180,,,Anglican Community Services,Religious,Major Cities of Australia,-33.73141836,151.0225907,5914261
BALMAIN,NSW,2041,Inner West,Sydney - Inner West,Residential,44,,,The Salvation Army (NSW) Property Trust,Charitable,Major Cities of Australia,-33.85583705,151.1849277,3658451
GREYSTANES,NSW,2145,Western Sydney,Sydney - Parramatta,Residential,40,,,Southern Cross Care (NSW & ACT),Religious,Major Cities of Australia,-33.81627282,150.9506851,2520274
HAMMONDVILLE,NSW,2170,South West Sydney,Sydney - South West,Residential,40,,,HammondCare,Charitable,Major Cities of Australia,-33.95054403,150.9595111,2382238
NORTH TAMWORTH,NSW,2340,New England,New England and North West,Residential,106,,,Bupa Aged Care Australia Pty Ltd,Private Incorporated Body,Inner Regional Australia,-31.07460645,150.9296714,7361395
WOOLWICH,NSW,2110,Northern Sydney,Sydney - Ryde,Residential,40,,,Illawarra Retirement Trust,Community Based,Major Cities of Australia,-33.84032401,151.1654828,985361
WARABROOK,NSW,2304,Hunter,Newcastle and Lake Macquarie,Residential,153,,,BaptistCare NSW & ACT,Charitable,Major Cities of Australia,-32.88924623,151.7207051,10112915
JESMOND,NSW,2299,Hunter,Newcastle and Lake Macquarie,Residential,86,,,Anglican Care,Charitable,Major Cities of Australia,-32.89720005,151.6844759,4911641
ERINA,NSW,2250,Central Coast,Central Coast,Residential,74,,,HammondCare,Charitable,Major Cities of Australia,-33.43434269,151.4007576,4891014
KENSINGTON,NSW,2033,South East Sydney,Sydney - Eastern Suburbs,Residential,50,,,St Joseph's Aged Care Facility for Religious Limited,Religious,Major Cities of Australia,-33.91130792,151.2203576,3089505
BOTANY,NSW,2019,South East Sydney,Sydney - City and Inner South,Residential,170,,,Bisaxa Pty Ltd,Private Incorporated Body,Major Cities of Australia,-33.95321952,151.1985803,10842052
YOUNG,NSW,2594,Southern Highlands,Capital Region,Residential,65,,,Mercy Care Centre Young,Charitable,Inner Regional Australia,-34.32328101,148.2899619,4096597
BANORA POINT,NSW,2486,Far North Coast,Richmond - Tweed,Residential,103,,,Bupa Aged Care Australia Pty Ltd,Private Incorporated Body,Major Cities of Australia,-28.21656131,153.5194636,6597891
JAMISONTOWN,NSW,2750,Nepean,Sydney - Outer West and Blue Mountains,Residential,105,,,St Marys Gardens Aged Care Centre Pty Limited,Private Incorporated Body,Major Cities of Australia,-33.76164594,150.6819166,7032768
PORT KEMBLA,NSW,2505,Illawarra,Illawarra,Residential,40,,,Illawarra Retirement Trust,Community Based,Major Cities of Australia,-34.48555667,150.9115984,1957290
OLD BAR,NSW,2430,Mid North Coast,Mid North Coast,Residential,80,,,Bushland Health Group Limited,Community Based,Inner Regional Australia,-31.96369388,152.581731,3614929
FINGAL BAY,NSW,2315,Hunter,Hunter Valley exc Newcastle,Residential,52,,,Port Stephens Veterans and Citizens Aged Care Ltd,Community Based,Inner Regional Australia,-32.74907572,152.166265,3330122
KOGARAH,NSW,2217,South East Sydney,Sydney - Inner South West,Residential,57,,,Majestic Health Aged Care Pty Ltd,Private Incorporated Body,Major Cities of Australia,-33.97135224,151.1314155,3679223
ST MARYS,NSW,2760,Nepean,Sydney - Outer West and Blue Mountains,Residential,120,,,St Marys Gardens Aged Care Centre Pty Limited,Private Incorporated Body,Major Cities of Australia,-33.77229341,150.7698243,9342603
BONNELLS BAY,NSW,2264,Hunter,Newcastle and Lake Macquarie,Residential,124,,,Allity Pty Ltd,Private Incorporated Body,Major Cities of Australia,-33.105586,151.506013,7933192
THORNLEIGH,NSW,2120,Northern Sydney,Sydney - North Sydney and Hornsby,Residential,54,,,The Presbyterian Church (New South Wales) Property Trust,Religious,Major Cities of Australia,-33.73037151,151.0832276,3164802
NARRABEEN,NSW,2101,Northern Sydney,Sydney - Northern Beaches,Residential,293,,,RSL LifeCare Limited,Community Based,Major Cities of Australia,-33.72410351,151.2867685,15071725
AUBURN,NSW,2144,Western Sydney,Sydney - Parramatta,Residential,102,,,St Vincent's Care Services Ltd.,Religious,Major Cities of Australia,-33.84950477,151.0287885,6819221
CONCORD,NSW,2137,Inner West,Sydney - Inner West,Residential,99,,,Trustees of Catholic Aged Care Sydney,Religious,Major Cities of Australia,-33.86770809,151.1050171,4997083
ASHFIELD,NSW,2131,Inner West,Sydney - Inner West,Residential,138,,,The Presbyterian Church (New South Wales) Property Trust,Religious,Major Cities of Australia,-33.88551311,151.1261866,7382522
PADDINGTON,NSW,2021,South East Sydney,Sydney - Eastern Suburbs,Residential,88,,,The Presbyterian Church (New South Wales) Property Trust,Religious,Major Cities of Australia,-33.8807799,151.226405,4041904
GREENACRE,NSW,2190,South West Sydney,Sydney - Inner South West,Residential,150,,,Estia Investments Pty Ltd,Private Incorporated Body,Major Cities of Australia,-33.90438319,151.05058,9913865
MAYFIELD,NSW,2304,Hunter,Newcastle and Lake Macquarie,Residential,40,,,Catholic Healthcare Limited,Charitable,Major Cities of Australia,-32.8939749,151.7310041,2941783
RICHMOND,NSW,2753,Nepean,Sydney - Outer West and Blue Mountains,Residential,60,,,Anglican Community Services,Religious,Major Cities of Australia,-33.61408392,150.7424348,4141189
WENTWORTH FALLS,NSW,2782,Nepean,Sydney - Outer West and Blue Mountains,Residential,120,,,Catholic Healthcare Limited,Charitable,Major Cities of Australia,-33.72946865,150.3860759,7898121
BATHURST,NSW,2795,Central West,Central West,Residential,55,,,Catholic Healthcare Limited,Charitable,Inner Regional Australia,-33.41814393,149.579107,3854432
WATERFALL,NSW,2233,Illawarra,Sydney - Sutherland,Residential,120,,,NSW State Government (NSW Ministry of Health),State Government,Inner Regional Australia,-34.18034319,150.9674291,5952475
PENRITH,NSW,2750,Nepean,Sydney - Outer West and Blue Mountains,Residential,82,,,RSL LifeCare Limited,Community Based,Major Cities of Australia,-33.751154,150.709989,5870294
EASTWOOD,NSW,2122,Northern Sydney,Sydney - Ryde,Residential,96,,,St Catherine's Aged Care Services,Religious,Major Cities of Australia,-33.781323,151.09999,5031756
CESSNOCK,NSW,2325,Hunter,Hunter Valley exc Newcastle,Residential,296,,,Calvary Retirement Communities Hunter-Manning Ltd,Religious,Inner Regional Australia,-32.81702252,151.3461044,17242901
PICTON,NSW,2571,South West Sydney,Sydney - Outer South West,Residential,102,,,RSL LifeCare Limited,Community Based,Inner Regional Australia,-34.18754415,150.5961109,7266288
GRASMERE,NSW,2570,South West Sydney,Sydney - Outer South West,Residential,64,,,Carrington Centennial Care Limited,Private Incorporated Body,Major Cities of Australia,-34.05665981,150.6746141,4237621
DUBBO,NSW,2830,Orana Far West,Far West and Orana,Residential,62,,,Catholic Healthcare Limited,Charitable,Inner Regional Australia,-32.23714555,148.6268964,4583155
GLOUCESTER,NSW,2422,Mid North Coast,Mid North Coast,Residential,40,,,NSW State Government (NSW Ministry of Health),State Government,Inner Regional Australia,-32.00350838,151.9586797,1402406
EAST LISMORE,NSW,2480,Far North Coast,Richmond - Tweed,Residential,130,,,The Trustees of the Roman Catholic Church for the Diocese of Lismore,Religious,Inner Regional Australia,-28.82033527,153.2871784,8167148
MURRUMBURRAH,NSW,2587,Southern Highlands,Capital Region,Residential,20,,,NSW State Government (NSW Ministry of Health),State Government,Inner Regional Australia,-34.55122146,148.3582103,1108891
COROWA,NSW,2646,Riverina/Murray,Murray,Residential,31,,,NSW State Government (NSW Ministry of Health),State Government,Inner Regional Australia,-35.99903571,146.3827484,1152168
HOLBROOK,NSW,2644,Riverina/Murray,Murray,Residential,16,,,NSW State Government (NSW Ministry of Health),State Government,Inner Regional Australia,-35.72144445,147.3129783,635426
WALLSEND,NSW,2287,Hunter,Newcastle and Lake Macquarie,Residential,98,,,NSW State Government (NSW Ministry of Health),State Government,Major Cities of Australia,-32.89973583,151.6783129,4355321
ASHFIELD,NSW,2131,Inner West,Sydney - Inner West,Residential,63,,,The Uniting Church in Australia Property Trust (NSW),Religious,Major Cities of Australia,-33.8923872,151.1296026,5001229
RYDE,NSW,2112,Northern Sydney,Sydney - Ryde,Residential,112,,,S'Antonio Da Padova Protettore Di Poggioreale Sydney Nursing Home Limited,Religious,Major Cities of Australia,-33.80504563,151.1049177,4196688
BURWOOD,NSW,2134,Inner West,Sydney - Inner West,Residential,70,,,Siva Kolunthu Pty Limited,Private Incorporated Body,Major Cities of Australia,-33.8708451,151.1002972,4967863
LILYFIELD,NSW,2040,Inner West,Sydney - Inner West,Residential,102,,,The Uniting Church in Australia Property Trust (NSW),Religious,Major Cities of Australia,-33.87107173,151.1584808,7207844
ARNCLIFFE,NSW,2205,South East Sydney,Sydney - Inner South West,Residential,42,,,Fresh Fields Aged Care (NSW) - No 1 Pty Ltd,Private Incorporated Body,Major Cities of Australia,-33.94216301,151.1380536,2515602
GLADESVILLE,NSW,2111,Northern Sydney,Sydney - Ryde,Residential,108,,,Christadelphian Homes Limited,Religious,Major Cities of Australia,-33.83680504,151.1259002,6211132
RYDE,NSW,2112,Northern Sydney,Sydney - Ryde,Residential,40,,,Estia Investments Pty Ltd,Private Incorporated Body,Major Cities of Australia,-33.81641921,151.0937741,2717156
PENDLE HILL,NSW,2145,Western Sydney,Sydney - Parramatta,Residential,194,,,The Churches of Christ Property Trust,Religious,Major Cities of Australia,-33.80478939,150.9563118,11368740
RANDWICK,NSW,2031,South East Sydney,Sydney - Eastern Suburbs,Residential,45,,,Thompson Health Care Pty Ltd,Private Incorporated Body,Major Cities of Australia,-33.91504137,151.2420392,2863522
BELMORE,NSW,2192,Inner West,Sydney - Inner South West,Residential,72,,,Regis Aged Care Pty Ltd,Private Incorporated Body,Major Cities of Australia,-33.9163884,151.0888825,5097624
ASHFIELD,NSW,2131,Inner West,Sydney - Inner West,Residential,76,,,Ashfield Baptist Homes Ltd,Religious,Major Cities of Australia,-33.894935,151.125784,5085199
BLAKEHURST,NSW,2221,South East Sydney,Sydney - Inner South West,Residential,104,,,Blakehurst Aged Care Services Pty Ltd,Private Incorporated Body,Major Cities of Australia,-33.98196522,151.1104994,5191113
SUMMER HILL,NSW,2130,Inner West,Sydney - Inner West,Residential,73,,,Korlim Pty Ltd,Private Incorporated Body,Major Cities of Australia,-33.89301424,151.1344294,5242071
CRONULLA,NSW,2230,South East Sydney,Sydney - Sutherland,Residential,40,,,Pathways Aged Care Pty Limited,Private Incorporated Body,Major Cities of Australia,-34.0455828,151.1585317,3120520
CAMDEN,NSW,2570,South West Sydney,Sydney - Outer South West,Residential,176,,,Estia Investments Pty Ltd,Private Incorporated Body,Major Cities of Australia,-34.07263962,150.6961916,10979803
LIDCOMBE,NSW,2141,Western Sydney,Sydney - Parramatta,Residential,70,,,Clendon Care Pty Ltd,Private Incorporated Body,Major Cities of Australia,-33.8630427,151.0473065,4261225
MARRICKVILLE,NSW,2204,Inner West,Sydney - City and Inner South,Residential,101,,,The Trustees of the Maronite Sisters of The Holy Family,Religious,Major Cities of Australia,-33.91106225,151.1475937,7793699
GOONELLABAH,NSW,2480,Far North Coast,Richmond - Tweed,Residential,70,,,The Uniting Church in Australia Property Trust (NSW),Religious,Inner Regional Australia,-28.82564046,153.3203039,5067388
BEECROFT,NSW,2119,Northern Sydney,Sydney - Ryde,Residential,77,,,Anglican Community Services,Religious,Major Cities of Australia,-33.75651136,151.0705513,4426566
WOONONA,NSW,2517,Illawarra,Illawarra,Residential,60,,,Anglican Community Services,Religious,Major Cities of Australia,-34.35141122,150.9095235,4477122
RYDE,NSW,2112,Northern Sydney,Sydney - Ryde,Residential,55,,,Clermont Aged Care Pty Ltd,Private Incorporated Body,Major Cities of Australia,-33.80194975,151.1064314,3696806
BURWOOD HEIGHTS,NSW,2136,Inner West,Sydney - Inner West,Residential,64,,,Fresh Fields Management (NSW) Pty Ltd,Private Incorporated Body,Major Cities of Australia,-33.88877544,151.1064354,3723378
DOONSIDE,NSW,2767,Western Sydney,Sydney - Blacktown,Residential,71,,,Doonside Aged Care Centre Pty Ltd,Private Incorporated Body,Major Cities of Australia,-33.76079939,150.8657144,464411
PENSHURST,NSW,2222,South East Sydney,Sydney - Inner South West,Residential,72,,,Oreison Pty Ltd,Private Incorporated Body,Major Cities of Australia,-33.95998288,151.0786274,5490384
WEST RYDE,NSW,2114,Northern Sydney,Sydney - Ryde,Residential,80,,,DPG Services Pty Ltd,Private Incorporated Body,Major Cities of Australia,-33.81397604,151.08616,5265480
GLENFIELD,NSW,2167,South West Sydney,Sydney - Outer South West,Residential,356,,,The Frank Whiddon Masonic Homes of New South Wales,Charitable,Major Cities of Australia,-33.97702387,150.9002088,18724776
STRATHFIELD,NSW,2135,Inner West,Sydney - Inner West,Residential,63,,,Rasko Holdings Pty Ltd,Private Incorporated Body,Major Cities of Australia,-33.87846578,151.0949012,4875578
HAMMONDVILLE,NSW,2170,South West Sydney,Sydney - South West,Residential,83,,,HammondCare,Charitable,Major Cities of Australia,-33.95054403,150.9595111,6068910
OATLEY,NSW,2223,South East Sydney,Sydney - Inner South West,Residential,80,,,Ark Health Care (Hillcrest & Russell Lea) Pty Ltd,Private Incorporated Body,Major Cities of Australia,-33.98601437,151.0773938,3962437
STRATHFIELD,NSW,2135,Inner West,Sydney - Inner West,Residential,99,,,Jesmond Aged Care Pty Ltd,Private Incorporated Body,Major Cities of Australia,-33.87266264,151.0848932,7879096
ROSEHILL,NSW,2142,Western Sydney,Sydney - Parramatta,Residential,50,,,Trinity Aged Care Pty Ltd,Private Incorporated Body,Major Cities of Australia,-33.82348944,151.0138877,3408514
CABRAMATTA,NSW,2166,South West Sydney,Sydney - South West,Residential,161,,,Arete Health Care (Lansdowne) Pty Limited,Private Incorporated Body,Major Cities of Australia,-33.89831423,150.9435983,9776905
BURWOOD,NSW,2134,Inner West,Sydney - Inner West,Residential,62,,,Linburn Nursing Home Pty Ltd,Private Incorporated Body,Major Cities of Australia,-33.87106553,151.1001335,3746392
BUNDANOON,NSW,2578,South West Sydney,Southern Highlands and Shoalhaven,Residential,90,,,Warrigal Care,Charitable,Inner Regional Australia,-34.6552209,150.2952465,5076776
MARRICKVILLE,NSW,2204,Inner West,Sydney - City and Inner South,Residential,188,,,Columbia Nursing Homes Pty Ltd,Private Incorporated Body,Major Cities of Australia,-33.90761786,151.1478265,10214078
WARATAH,NSW,2298,Hunter,Newcastle and Lake Macquarie,Residential,155,,,Maroba,Charitable,Major Cities of Australia,-32.90209971,151.7198503,9871740
ROCKDALE,NSW,2216,South East Sydney,Sydney - Inner South West,Residential,48,,,Fresh Fields Aged Care (NSW) - No 1 Pty Ltd,Private Incorporated Body,Major Cities of Australia,-33.94829571,151.1307619,3525763
STRATHFIELD,NSW,2135,Inner West,Sydney - Inner West,Residential,63,,,Paston Pty Ltd,Private Incorporated Body,Major Cities of Australia,-33.87071208,151.0806271,4009122
ROSEVILLE,NSW,2069,Northern Sydney,Sydney - North Sydney and Hornsby,Residential,45,,,Bupa Aged Care Australia Pty Ltd,Private Incorporated Body,Major Cities of Australia,-33.78680117,151.1779249,2674840
RANDWICK,NSW,2031,South East Sydney,Sydney - Eastern Suburbs,Residential,62,,,Little Sisters of the Poor Aged Care Ltd,Religious,Major Cities of Australia,-33.90633837,151.2461524,3765693
PARKES,NSW,2870,Central West,Central West,Residential,59,,,BaptistCare NSW & ACT,Charitable,Outer Regional Australia,-33.1342652,148.1709029,2997171
GYMEA BAY,NSW,2227,South East Sydney,Sydney - Sutherland,Residential,59,,,Apex Software Pty Limited,Private Incorporated Body,Major Cities of Australia,-34.05202937,151.0837116,3518482
ROOTY HILL,NSW,2766,Western Sydney,Sydney - Blacktown,Residential,131,,,Our Lady of Consolation Aged Care & Services Limited,Religious,Major Cities of Australia,-33.78276902,150.846673,8895150
KIRRAWEE,NSW,2232,South East Sydney,Sydney - Sutherland,Residential,72,,,Palms Aged Living Management Services Pty Ltd,Private Incorporated Body,Major Cities of Australia,-34.03635518,151.0721108,4643338
FIVE DOCK,NSW,2046,Inner West,Sydney - Inner West,Residential,59,,,Benessere Health Care Pty Ltd,Private Incorporated Body,Major Cities of Australia,-33.86727362,151.1327883,3624201
KATOOMBA,NSW,2780,Nepean,Sydney - Outer West and Blue Mountains,Residential,91,,,Aquarius Aged Care Pty Ltd,Private Incorporated Body,Major Cities of Australia,-33.7124643,150.315547,5976983
ROSEVILLE,NSW,2069,Northern Sydney,Sydney - North Sydney and Hornsby,Residential,39,,,Pathways Aged Care Pty Limited,Private Incorporated Body,Major Cities of Australia,-33.7884353,151.1876513,2413706
HUNTERS HILL,NSW,2110,Northern Sydney,Sydney - Ryde,Residential,333,,,Sir Moses Montefiore Jewish Home,Religious,Major Cities of Australia,-33.82127872,151.139635,21809523
KENSINGTON,NSW,2033,South East Sydney,Sydney - Eastern Suburbs,Residential,55,,,Castellorizian Aged Care Services Limited,Community Based,Major Cities of Australia,-33.90928304,151.2184732,3937000
LEURA,NSW,2780,Nepean,Sydney - Outer West and Blue Mountains,Residential,46,,,Siena Management Services Pty. Limited,Private Incorporated Body,Major Cities of Australia,-33.71477506,150.3393768,3056654
HURSTVILLE,NSW,2220,South East Sydney,Sydney - Inner South West,Residential,110,,,Regis Aged Care Pty Ltd,Private Incorporated Body,Major Cities of Australia,-33.96115426,151.0949145,6641643
WAHROONGA,NSW,2076,Northern Sydney,Sydney - North Sydney and Hornsby,Residential,124,,,Thompson Health Care Pty Ltd,Private Incorporated Body,Major Cities of Australia,-33.71510989,151.1080455,2642874
LAKEMBA,NSW,2195,Inner West,Sydney - Inner South West,Residential,52,,,Aquarius Aged Care Pty Ltd,Private Incorporated Body,Major Cities of Australia,-33.91463035,151.0780527,3928766
NARRABEEN,NSW,2101,Northern Sydney,Sydney - Northern Beaches,Residential,216,,,RSL LifeCare Limited,Community Based,Major Cities of Australia,-33.72410351,151.2867685,12953168
RANDWICK,NSW,2031,South East Sydney,Sydney - Eastern Suburbs,Residential,94,,,Frenchmans Lodge Nursing Home Pty Limited,Private Incorporated Body,Major Cities of Australia,-33.9084816,151.245322,7013115
LINDFIELD,NSW,2070,Northern Sydney,Sydney - North Sydney and Hornsby,Residential,76,,,Quinvil Pty Ltd,Private Incorporated Body,Major Cities of Australia,-33.77477155,151.1721715,4712476
MARRICKVILLE,NSW,2204,Inner West,Sydney - City and Inner South,Residential,62,,,Allity Pty Ltd,Private Incorporated Body,Major Cities of Australia,-33.9052716,151.1496867,4940527
NEUTRAL BAY,NSW,2089,Northern Sydney,Sydney - North Sydney and Hornsby,Residential,25,,,Lansdowne Gardens Pty Limited,Private Incorporated Body,Major Cities of Australia,-33.83856387,151.2214354,937986
SUMMER HILL,NSW,2130,Inner West,Sydney - Inner West,Residential,80,,,Wyoming Nursing Home Pty Ltd,Private Incorporated Body,Major Cities of Australia,-33.88929984,151.1372108,4669064
BEXLEY,NSW,2207,South East Sydney,Sydney - Inner South West,Residential,44,,,Fairmont NSW Pty Ltd,Private Incorporated Body,Major Cities of Australia,-33.95237732,151.1267703,2925008
GLEN INNES,NSW,2370,New England,New England and North West,Residential,85,,,Roseneath Aged Care Centre Pty Ltd,Private Incorporated Body,Outer Regional Australia,-29.73865601,151.7433221,4277618
DRUMMOYNE,NSW,2047,Inner West,Sydney - Inner West,Residential,115,,,Scalabrini Village Ltd,Religious,Major Cities of Australia,-33.84904731,151.1582142,7406599
SINGLETON HEIGHTS,NSW,2330,Hunter,Hunter Valley exc Newcastle,Residential,35,,,The Uniting Church in Australia Property Trust (NSW),Religious,Inner Regional Australia,-32.54797262,151.1675456,2290692
GOULBURN,NSW,2580,Southern Highlands,Capital Region,Residential,160,,,Warrigal Care,Charitable,Inner Regional Australia,-34.73111125,149.7107337,9380062
WESTMEAD,NSW,2145,Western Sydney,Sydney - Parramatta,Residential,120,,,Sirrah Pty Ltd,Private Incorporated Body,Major Cities of Australia,-33.81501535,150.9847741,7260738
AUBURN,NSW,2144,Western Sydney,Sydney - Parramatta,Residential,32,,,Aquarius Aged Care Pty Ltd,Private Incorporated Body,Major Cities of Australia,-33.8457764,151.0355169,2598222
TERALBA,NSW,2284,Hunter,Newcastle and Lake Macquarie,Residential,97,,,Hunter Valley Care Pty Ltd,Private Incorporated Body,Major Cities of Australia,-32.96712384,151.6057119,6284851
NORTH RYDE,NSW,2113,Northern Sydney,Sydney - Ryde,Residential,78,,,New Horizons Enterprises Limited,Community Based,Major Cities of Australia,-33.80509434,151.12688,4919702
EPPING,NSW,2121,Northern Sydney,Sydney - Ryde,Residential,106,,,Estia Investments Pty Ltd,Private Incorporated Body,Major Cities of Australia,-33.76488461,151.0878619,5340662
ASHFIELD,NSW,2131,Inner West,Sydney - Inner West,Residential,40,,,The Willows Private Nursing Home Pty Ltd,Private Incorporated Body,Major Cities of Australia,-33.88443112,151.1336801,2760573
WYONG,NSW,2259,Central Coast,Central Coast,Residential,94,,,Doonside Aged Care Centre Pty Ltd,Private Incorporated Body,Major Cities of Australia,-33.289639,151.421395,6658471
WAGGA WAGGA,NSW,2650,Riverina/Murray,Riverina,Residential,76,,,The Mary Potter Nursing Home and The Ethel Forrest Day Care Centre Pty Ltd,Religious,Inner Regional Australia,-35.125029,147.330918,4829227
SUMMER HILL,NSW,2130,Inner West,Sydney - Inner West,Residential,35,,,East West Health Care Pty Ltd,Private Incorporated Body,Major Cities of Australia,-33.89582339,151.1327335,2551362
COORANBONG,NSW,2265,Hunter,Newcastle and Lake Macquarie,Residential,123,,,Seventh-day Adventist Aged Care (North New South Wales) Ltd,Charitable,Major Cities of Australia,-33.08117149,151.4552319,8161404
BROKEN HILL,NSW,2880,Orana Far West,Far West and Orana,Residential,121,,,Southern Cross Care (Broken Hill) Ltd,Religious,Outer Regional Australia,-31.97974253,141.4553847,8518614
VAUCLUSE,NSW,2030,South East Sydney,Sydney - Eastern Suburbs,Residential,63,,,Hamersley Nursing Home (WA) Pty Ltd,Private Incorporated Body,Major Cities of Australia,-33.86016936,151.2811638,4790285
ARMIDALE,NSW,2350,New England,New England and North West,Residential,62,,,Royal Freemasons' Benevolent Institution,Charitable,Inner Regional Australia,-30.5058921,151.6839129,3627741
WAVERLEY,NSW,2024,South East Sydney,Sydney - Eastern Suburbs,Residential,71,,,Bupa Aged Care Australia Pty Ltd,Private Incorporated Body,Major Cities of Australia,-33.90356409,151.2534513,3778348
NORTH PARRAMATTA,NSW,2151,Western Sydney,Sydney - Parramatta,Residential,80,,,Southern Cross Care (NSW & ACT),Religious,Major Cities of Australia,-33.8039129,151.0017958,5259717
KILLARA,NSW,2071,Northern Sydney,Sydney - North Sydney and Hornsby,Residential,105,,,Pathways Aged Care Pty Limited,Private Incorporated Body,Major Cities of Australia,-33.76282204,151.1574991,4500054
PARRAMATTA,NSW,2150,Western Sydney,Sydney - Parramatta,Residential,152,,,Ark Health Care (Parramatta) Pty Ltd,Private Incorporated Body,Major Cities of Australia,-33.81271038,151.0161616,8986424
WAHROONGA,NSW,2076,Northern Sydney,Sydney - North Sydney and Hornsby,Residential,56,,,Aquarius Aged Care Pty Ltd,Private Incorporated Body,Major Cities of Australia,-33.71730659,151.1080055,2428872
CHARLESTOWN,NSW,2290,Hunter,Newcastle and Lake Macquarie,Residential,112,,,Hunter Valley Care Pty Ltd,Private Incorporated Body,Major Cities of Australia,-32.97126488,151.6991721,6099223
GILEAD,NSW,2560,South West Sydney,Sydney - Outer South West,Residential,164,,,Estia Investments Pty Ltd,Private Incorporated Body,Major Cities of Australia,-34.1120515,150.7862028,10654100
WAHROONGA,NSW,2076,Northern Sydney,Sydney - North Sydney and Hornsby,Residential,77,,,Aquarius Aged Care Pty Ltd,Private Incorporated Body,Major Cities of Australia,-33.71658215,151.1081634,3935383
BEECROFT,NSW,2119,Northern Sydney,Sydney - Ryde,Residential,95,,,Salmar Holdings Pty Ltd,Private Incorporated Body,Major Cities of Australia,-33.7556034,151.0689955,5836188
PEAKHURST,NSW,2210,South East Sydney,Sydney - Inner South West,Residential,110,,,The Trustees of the Sisters of Our Lady of China,Religious,Major Cities of Australia,-33.96133307,151.0553294,6727936
CAREY BAY,NSW,2283,Hunter,Newcastle and Lake Macquarie,Residential,91,,,Anglican Care,Charitable,Major Cities of Australia,-33.02883316,151.6044989,5306789
MUDGEE,NSW,2850,Orana Far West,Central West,Residential,81,,,Pioneer House Living Limited,Community Based,Inner Regional Australia,-32.5935446,149.5798872,4277802
TURRAMURRA,NSW,2074,Northern Sydney,Sydney - North Sydney and Hornsby,Residential,55,,,The Uniting Church in Australia Property Trust (NSW),Religious,Major Cities of Australia,-33.73403779,151.1308678,3245539
MONA VALE,NSW,2103,Northern Sydney,Sydney - Northern Beaches,Residential,33,,,Thompson Health Care Pty Ltd,Private Incorporated Body,Major Cities of Australia,-33.67456581,151.3053479,2089338
WESTMEAD,NSW,2145,Western Sydney,Sydney - Parramatta,Residential,96,,,The Uniting Church in Australia Property Trust (NSW),Religious,Major Cities of Australia,-33.80581716,150.992611,7089457
HUNTERS HILL,NSW,2110,Northern Sydney,Sydney - Ryde,Residential,50,,,Catholic Healthcare Limited,Charitable,Major Cities of Australia,-33.83424594,151.1411197,3098096
RICHMOND,NSW,2753,Nepean,Sydney - Outer West and Blue Mountains,Residential,100,,,Hawkesbury Living Pty Limited,Community Based,Major Cities of Australia,-33.5991895,150.7498975,7317646
BEXLEY,NSW,2207,South East Sydney,Sydney - Inner South West,Residential,69,,,Bupa Aged Care Australia Pty Ltd,Private Incorporated Body,Major Cities of Australia,-33.96140761,151.1139399,4898621
CARDIFF,NSW,2285,Hunter,Newcastle and Lake Macquarie,Residential,63,,,Bupa Aged Care Australia Pty Ltd,Private Incorporated Body,Major Cities of Australia,-32.937745,151.673334,3678248
KINGSWOOD,NSW,2747,Nepean,Sydney - Outer West and Blue Mountains,Residential,77,,,East West Health Care Pty Ltd,Private Incorporated Body,Major Cities of Australia,-33.75948819,150.7314393,5218059
BRIGHTON LE SANDS,NSW,2216,South East Sydney,Sydney - Inner South West,Residential,40,,,Jenny-Lynn Aged Care Centre Pty Ltd,Private Incorporated Body,Major Cities of Australia,-33.95466147,151.1555788,2937795
WAVERLEY,NSW,2024,South East Sydney,Sydney - Eastern Suburbs,Residential,67,,,Phillip House Nursing Home Pty Ltd,Private Incorporated Body,Major Cities of Australia,-33.90351839,151.2561706,4832145
GREENWICH,NSW,2065,Northern Sydney,Sydney - North Sydney and Hornsby,Residential,56,,,Fresh Fields Aged Care (NSW) - No 1 Pty Ltd,Private Incorporated Body,Major Cities of Australia,-33.82788391,151.1890532,3755376
MORTDALE,NSW,2223,South East Sydney,Sydney - Inner South West,Residential,136,,,Aspic Holdings Pty Ltd,Private Incorporated Body,Major Cities of Australia,-33.96385186,151.0791867,8719093
WARILLA,NSW,2528,Illawarra,Illawarra,Residential,100,,,Warrigal Care,Charitable,Major Cities of Australia,-34.55393941,150.8641739,7315808
LANE COVE,NSW,2066,Northern Sydney,Sydney - North Sydney and Hornsby,Residential,79,,,Fresh Fields Aged Care (NSW) - No 1 Pty Ltd,Private Incorporated Body,Major Cities of Australia,-33.81897778,151.151571,5145526
MIRANDA,NSW,2228,South East Sydney,Sydney - Sutherland,Residential,80,,,Doherty & Associates Pty Ltd,Private Incorporated Body,Major Cities of Australia,-34.03162883,151.1086994,4541754
PARKES,NSW,2870,Central West,Central West,Residential,29,,,The Salvation Army (NSW) Property Trust,Charitable,Outer Regional Australia,-33.13824782,148.1844314,1756906
FAIRFIELD,NSW,2165,South West Sydney,Sydney - South West,Residential,95,,,Fresh Fields Management (NSW) Pty Ltd,Private Incorporated Body,Major Cities of Australia,-33.8703078,150.9588805,6002557
MANLY VALE,NSW,2093,Northern Sydney,Sydney - Northern Beaches,Residential,82,,,Estia Investments Pty Ltd,Private Incorporated Body,Major Cities of Australia,-33.78313133,151.2662712,4095663
CANLEY VALE,NSW,2166,South West Sydney,Sydney - South West,Residential,104,,,E E W Investments Pty Ltd,Private Incorporated Body,Major Cities of Australia,-33.88445048,150.9401281,7682643
MAYFIELD,NSW,2304,Hunter,Newcastle and Lake Macquarie,Residential,67,,,M.N.H. Pty Ltd,Private Incorporated Body,Major Cities of Australia,-32.89519605,151.7407961,3725196
MONA VALE,NSW,2103,Northern Sydney,Sydney - Northern Beaches,Residential,64,,,Thompson Health Care Pty Ltd,Private Incorporated Body,Major Cities of Australia,-33.6731809,151.3095628,3572521
NORMANHURST,NSW,2076,Northern Sydney,Sydney - North Sydney and Hornsby,Residential,107,,,Allity Pty Ltd,Private Incorporated Body,Major Cities of Australia,-33.72284751,151.1047119,1889049
CARLTON,NSW,2218,South East Sydney,Sydney - Inner South West,Residential,42,,,Denever Pty Ltd,Private Incorporated Body,Major Cities of Australia,-33.96454768,151.1143929,2326042
SYLVANIA,NSW,2224,South East Sydney,Sydney - Sutherland,Residential,76,,,Ark Health Care (Sydney) Pty Ltd,Private Incorporated Body,Major Cities of Australia,-34.02297257,151.0902089,4081190
MONA VALE,NSW,2103,Northern Sydney,Sydney - Northern Beaches,Residential,49,,,Aquarius Aged Care Pty Ltd,Private Incorporated Body,Major Cities of Australia,-33.68414718,151.3033037,3305894
LANE COVE NORTH,NSW,2066,Northern Sydney,Sydney - North Sydney and Hornsby,Residential,74,,,The Uniting Church in Australia Property Trust (NSW),Religious,Major Cities of Australia,-33.80715435,151.1762928,5499062
ANNANDALE,NSW,2038,Inner West,Sydney - Inner West,Residential,68,,,DPG Services Pty Ltd,Private Incorporated Body,Major Cities of Australia,-33.88397752,151.168743,5769910
CANOWINDRA,NSW,2804,Central West,Central West,Residential,29,,,The Salvation Army (NSW) Property Trust,Charitable,Outer Regional Australia,-33.56393702,148.6450084,2037134
NORTH WOLLONGONG,NSW,2500,Illawarra,Illawarra,Residential,33,,,The Presbyterian Church (New South Wales) Property Trust,Religious,Major Cities of Australia,-34.41411773,150.8960638,2069522
NORTH ROCKS,NSW,2151,Western Sydney,Sydney - Parramatta,Residential,124,,,Bupa Aged Care Australia Pty Ltd,Private Incorporated Body,Major Cities of Australia,-33.7866694,151.0025504,7590294
STANMORE,NSW,2048,Inner West,Sydney - City and Inner South,Residential,69,,,DPG Services Pty Ltd,Private Incorporated Body,Major Cities of Australia,-33.89663855,151.1681616,5258296
BANKSIA,NSW,2216,South East Sydney,Sydney - Inner South West,Residential,70,,,Ark Health Care (Sydney) Pty Ltd,Private Incorporated Body,Major Cities of Australia,-33.945842,151.134128,3724980
COLLAROY PLATEAU,NSW,2097,Northern Sydney,Sydney - Northern Beaches,Residential,48,,,Plateau View Aged Care Pty Ltd,Private Incorporated Body,Major Cities of Australia,-33.73050277,151.2864873,2282145
PEAKHURST,NSW,2210,South East Sydney,Sydney - Inner South West,Residential,75,,,The Uniting Church in Australia Property Trust (NSW),Religious,Major Cities of Australia,-33.95867599,151.0656989,5220068
SINGLETON,NSW,2330,Hunter,Hunter Valley exc Newcastle,Residential,44,,,Mercy Services,Charitable,Inner Regional Australia,-32.5582583,151.1797022,1949875
HURSTVILLE,NSW,2220,South East Sydney,Sydney - Inner South West,Residential,53,,,Erma Nominees Pty Ltd & Milgerd Nominees Pty Ltd,Private Non-Incorporated Entity,Major Cities of Australia,-33.96001986,151.0953685,2664612
BLACKTOWN,NSW,2148,Western Sydney,Sydney - Blacktown,Residential,134,,,Budumu Pty Ltd,Private Incorporated Body,Major Cities of Australia,-33.76586904,150.9186705,9092331
BASS HILL,NSW,2197,South West Sydney,Sydney - Inner South West,Residential,70,,,Allity Pty Ltd,Private Incorporated Body,Major Cities of Australia,-33.90286484,151.0018237,5581661
GOONELLABAH,NSW,2480,Far North Coast,Richmond - Tweed,Residential,80,,,The Uniting Church in Australia Property Trust (NSW),Religious,Inner Regional Australia,-28.82564046,153.3203039,5584577
FAIRFIELD,NSW,2165,South West Sydney,Sydney - South West,Residential,90,,,Villawood Aged Care Pty Ltd,Private Incorporated Body,Major Cities of Australia,-33.87764579,150.9715354,7407331
LIVERPOOL,NSW,2170,South West Sydney,Sydney - South West,Residential,52,,,Wohl Investments Pty Ltd,Private Incorporated Body,Major Cities of Australia,-33.91706329,150.9125138,3067189
LEURA,NSW,2780,Nepean,Sydney - Outer West and Blue Mountains,Residential,148,,,Milstern Health Care Pty Ltd,Private Incorporated Body,Major Cities of Australia,-33.71454442,150.3297038,8381391
CROOKWELL,NSW,2583,Southern Highlands,Capital Region,Residential,45,,,Crookwell/Taralga Aged Care Ltd,Community Based,Inner Regional Australia,-34.44303068,149.4852611,1966199
BEXLEY,NSW,2207,South East Sydney,Sydney - Inner South West,Residential,64,,,Coastalbreeze Pty Ltd,Private Incorporated Body,Major Cities of Australia,-33.95850606,151.1253884,3468589
QUEANBEYAN,NSW,2620,Southern Highlands,Capital Region,Residential,178,,,Farad Nominees Pty Ltd,Private Incorporated Body,Major Cities of Australia,-35.34804525,149.2293755,7256737
CONISTON,NSW,2500,Illawarra,Illawarra,Residential,60,,,Warrigal Care,Charitable,Major Cities of Australia,-34.43733694,150.878194,4053030
LIVERPOOL,NSW,2170,South West Sydney,Sydney - South West,Residential,100,,,Wohl Investments Pty Ltd,Private Incorporated Body,Major Cities of Australia,-33.91589994,150.9118317,7628120
BEXLEY,NSW,2207,South East Sydney,Sydney - Inner South West,Residential,82,,,Homewood Care Pty Limited,Private Incorporated Body,Major Cities of Australia,-33.95412021,151.1124175,4667189
